{"type":"FeatureCollection","features":[{"geometry":{"coordinates":[-68.261,44.3771],"type":"Point"},"properties":{"DataAccess":"IMPROVE","Link":"http://www.nature.nps.gov/assets/intercept/?addr=http://vista.cira.colostate.edu/improve/data/data.htm","ImNetworkID":"netn","SiteID":1,"SiteCode":"ACAD1","EPACode":"230090103","SiteName":"Acadia NP","Parameter":"Visibility","Elevation":157,"EndDate":"2013-08-29T06:00:00.000Z","StartDate":"1988-03-02T07:00:00.000Z","Active":1,"Order":3},"type":"Feature"},{"geometry":{"coordinates":[-67.2661,45.1259],"type":"Point"},"properties":{"DataAccess":"IMPROVE","Link":"http://www.nature.nps.gov/assets/intercept/?addr=http://vista.cira.colostate.edu/improve/data/data.htm","ImNetworkID":"netn","SiteID":2,"SiteCode":"MOOS1","EPACode":"230291004","SiteName":"Moosehorn NWR","Parameter":"Visibility","Elevation":77,"EndDate":"2013-08-29T06:00:00.000Z","StartDate":"1994-12-03T07:00:00.000Z","Active":1,"Order":3},"type":"Feature"},{"geometry":{"coordinates":[-73.1268,43.1482],"type":"Point"},"properties":{"DataAccess":"IMPROVE","Link":"http://www.nature.nps.gov/assets/intercept/?addr=http://vista.cira.colostate.edu/improve/data/data.htm","ImNetworkID":"netn","SiteID":3,"SiteCode":"LYBR1","EPACode":"500038001","SiteName":"Lye Brook Wilderness","Parameter":"Visibility","Elevation":1015,"EndDate":"2012-09-30T06:00:00.000Z","StartDate":"1991-09-04T06:00:00.000Z","Active":0,"Order":3},"type":"Feature"},{"geometry":{"coordinates":[-71.2177,44.3082],"type":"Point"},"properties":{"DataAccess":"IMPROVE","Link":"http://www.nature.nps.gov/assets/intercept/?addr=http://vista.cira.colostate.edu/improve/data/data.htm","ImNetworkID":"netn","SiteID":4,"SiteCode":"GRGU1","EPACode":"330074002","SiteName":"Great Gulf Wilderness","Parameter":"Visibility","Elevation":453,"EndDate":"2013-08-29T06:00:00.000Z","StartDate":"1995-06-03T06:00:00.000Z","Active":1,"Order":3},"type":"Feature"},{"geometry":{"coordinates":[-74.4492,39.465],"type":"Point"},"properties":{"DataAccess":"IMPROVE","Link":"http://www.nature.nps.gov/assets/intercept/?addr=http://vista.cira.colostate.edu/improve/data/data.htm","ImNetworkID":"ncbn","SiteID":5,"SiteCode":"BRIG1","EPACode":"340019000","SiteName":"Brigantine NWR","Parameter":"Visibility","Elevation":5,"EndDate":"2013-08-29T06:00:00.000Z","StartDate":"1991-09-04T06:00:00.000Z","Active":1,"Order":3},"type":"Feature"},{"geometry":{"coordinates":[-78.4348,38.5229],"type":"Point"},"properties":{"DataAccess":"IMPROVE","Link":"http://www.nature.nps.gov/assets/intercept/?addr=http://vista.cira.colostate.edu/improve/data/data.htm","ImNetworkID":"midn","SiteID":6,"SiteCode":"SHEN1","EPACode":"511139000","SiteName":"Shenandoah NP","Parameter":"Visibility","Elevation":1079,"EndDate":"2013-08-29T06:00:00.000Z","StartDate":"1988-03-02T07:00:00.000Z","Active":1,"Order":3},"type":"Feature"},{"geometry":{"coordinates":[-79.5125,37.6266],"type":"Point"},"properties":{"DataAccess":"IMPROVE","Link":"http://www.nature.nps.gov/assets/intercept/?addr=http://vista.cira.colostate.edu/improve/data/data.htm","ImNetworkID":"aphn","SiteID":7,"SiteCode":"JARI1","EPACode":"511639000","SiteName":"James River Face Wilderness","Parameter":"Visibility","Elevation":289,"EndDate":"2013-08-29T06:00:00.000Z","StartDate":"2000-06-03T06:00:00.000Z","Active":1,"Order":3},"type":"Feature"},{"geometry":{"coordinates":[-79.4261,39.1053],"type":"Point"},"properties":{"DataAccess":"IMPROVE","Link":"http://www.nature.nps.gov/assets/intercept/?addr=http://vista.cira.colostate.edu/improve/data/data.htm","ImNetworkID":"midn","SiteID":8,"SiteCode":"DOSO1","EPACode":"540939000","SiteName":"Dolly Sods Wilderness","Parameter":"Visibility","Elevation":1182,"EndDate":"2013-08-29T06:00:00.000Z","StartDate":"1991-09-04T06:00:00.000Z","Active":1,"Order":3},"type":"Feature"},{"geometry":{"coordinates":[-86.1479,37.1318],"type":"Point"},"properties":{"DataAccess":"IMPROVE","Link":"http://www.nature.nps.gov/assets/intercept/?addr=http://vista.cira.colostate.edu/improve/data/data.htm","ImNetworkID":"cupn","SiteID":9,"SiteCode":"MACA1","EPACode":"210619000","SiteName":"Mammoth Cave NP","Parameter":"Visibility","Elevation":235,"EndDate":"2013-08-29T06:00:00.000Z","StartDate":"1991-09-04T06:00:00.000Z","Active":1,"Order":3},"type":"Feature"},{"geometry":{"coordinates":[-83.9416,35.6334],"type":"Point"},"properties":{"DataAccess":"IMPROVE","Link":"http://www.nature.nps.gov/assets/intercept/?addr=http://vista.cira.colostate.edu/improve/data/data.htm","ImNetworkID":"aphn","SiteID":10,"SiteCode":"GRSM1","EPACode":"470090101","SiteName":"Great Smoky Mountains NP","Parameter":"Visibility","Elevation":810,"EndDate":"2013-08-29T06:00:00.000Z","StartDate":"1988-03-02T07:00:00.000Z","Active":1,"Order":3},"type":"Feature"},{"geometry":{"coordinates":[-82.7744,35.3937],"type":"Point"},"properties":{"DataAccess":"IMPROVE","Link":"http://www.nature.nps.gov/assets/intercept/?addr=http://vista.cira.colostate.edu/improve/data/data.htm","ImNetworkID":"aphn","SiteID":11,"SiteCode":"SHRO1","EPACode":"370870035","SiteName":"Shining Rock Wilderness","Parameter":"Visibility","Elevation":1617,"EndDate":"2013-08-29T06:00:00.000Z","StartDate":"1994-06-01T06:00:00.000Z","Active":1,"Order":3},"type":"Feature"},{"geometry":{"coordinates":[-84.6265,34.7852],"type":"Point"},"properties":{"DataAccess":"IMPROVE","Link":"http://www.nature.nps.gov/assets/intercept/?addr=http://vista.cira.colostate.edu/improve/data/data.htm","ImNetworkID":"cupn","SiteID":12,"SiteCode":"COHU1","EPACode":"132139000","SiteName":"Cohutta","Parameter":"Visibility","Elevation":735,"EndDate":"2013-08-29T06:00:00.000Z","StartDate":"2000-06-03T06:00:00.000Z","Active":1,"Order":3},"type":"Feature"},{"geometry":{"coordinates":[-81.9331,35.9723],"type":"Point"},"properties":{"DataAccess":"IMPROVE","Link":"http://www.nature.nps.gov/assets/intercept/?addr=http://vista.cira.colostate.edu/improve/data/data.htm","ImNetworkID":"aphn","SiteID":13,"SiteCode":"LIGO1","EPACode":"370110002","SiteName":"Linville Gorge","Parameter":"Visibility","Elevation":968,"EndDate":"2013-08-29T06:00:00.000Z","StartDate":"2000-04-01T07:00:00.000Z","Active":1,"Order":3},"type":"Feature"},{"geometry":{"coordinates":[-76.2075,35.451],"type":"Point"},"properties":{"DataAccess":"IMPROVE","Link":"http://www.nature.nps.gov/assets/intercept/?addr=http://vista.cira.colostate.edu/improve/data/data.htm","ImNetworkID":"secn","SiteID":14,"SiteCode":"SWAN1","EPACode":"370959000","SiteName":"Swanquarter","Parameter":"Visibility","Elevation":-3,"EndDate":"2013-08-29T06:00:00.000Z","StartDate":"2000-06-10T06:00:00.000Z","Active":1,"Order":3},"type":"Feature"},{"geometry":{"coordinates":[-79.6572,32.941],"type":"Point"},"properties":{"DataAccess":"IMPROVE","Link":"http://www.nature.nps.gov/assets/intercept/?addr=http://vista.cira.colostate.edu/improve/data/data.htm","ImNetworkID":"secn","SiteID":15,"SiteCode":"ROMA1","EPACode":"450190046","SiteName":"Cape Romain NWR","Parameter":"Visibility","Elevation":4,"EndDate":"2013-08-29T06:00:00.000Z","StartDate":"1994-09-03T06:00:00.000Z","Active":1,"Order":3},"type":"Feature"},{"geometry":{"coordinates":[-82.1283,30.7405],"type":"Point"},"properties":{"DataAccess":"IMPROVE","Link":"http://www.nature.nps.gov/assets/intercept/?addr=http://vista.cira.colostate.edu/improve/data/data.htm","ImNetworkID":"secn","SiteID":16,"SiteCode":"OKEF1","EPACode":"130499000","SiteName":"Okefenokee NWR","Parameter":"Visibility","Elevation":48,"EndDate":"2013-08-29T06:00:00.000Z","StartDate":"1991-09-04T06:00:00.000Z","Active":1,"Order":3},"type":"Feature"},{"geometry":{"coordinates":[-84.1614,30.0926],"type":"Point"},"properties":{"DataAccess":"IMPROVE","Link":"http://www.nature.nps.gov/assets/intercept/?addr=http://vista.cira.colostate.edu/improve/data/data.htm","ImNetworkID":"guln","SiteID":17,"SiteCode":"SAMA1","EPACode":"121290001","SiteName":"St. Marks","Parameter":"Visibility","Elevation":7,"EndDate":"2013-08-29T06:00:00.000Z","StartDate":"2000-08-16T06:00:00.000Z","Active":1,"Order":3},"type":"Feature"},{"geometry":{"coordinates":[-82.5549,28.7484],"type":"Point"},"properties":{"DataAccess":"IMPROVE","Link":"http://www.nature.nps.gov/assets/intercept/?addr=http://vista.cira.colostate.edu/improve/data/data.htm","ImNetworkID":"guln","SiteID":18,"SiteCode":"CHAS1","EPACode":"120179000","SiteName":"Chassahowitzka NWR","Parameter":"Visibility","Elevation":4,"EndDate":"2013-08-29T06:00:00.000Z","StartDate":"1993-03-03T07:00:00.000Z","Active":1,"Order":3},"type":"Feature"},{"geometry":{"coordinates":[-80.6806,25.391],"type":"Point"},"properties":{"DataAccess":"IMPROVE","Link":"http://www.nature.nps.gov/assets/intercept/?addr=http://vista.cira.colostate.edu/improve/data/data.htm","ImNetworkID":"sfcn","SiteID":19,"SiteCode":"EVER1","EPACode":"120860030","SiteName":"Everglades NP","Parameter":"Visibility","Elevation":1,"EndDate":"2013-08-29T06:00:00.000Z","StartDate":"1988-09-03T06:00:00.000Z","Active":1,"Order":3},"type":"Feature"},{"geometry":{"coordinates":[-89.2066,29.1189],"type":"Point"},"properties":{"DataAccess":"IMPROVE","Link":"http://www.nature.nps.gov/assets/intercept/?addr=http://vista.cira.colostate.edu/improve/data/data.htm","ImNetworkID":"guln","SiteID":20,"SiteCode":"BRET1","EPACode":"220759000","SiteName":"Breton","Parameter":"Visibility","Elevation":11,"EndDate":"2005-08-29T06:00:00.000Z","StartDate":"2000-08-16T06:00:00.000Z","Active":0,"Order":3},"type":"Feature"},{"geometry":{"coordinates":[-87.3388,34.3433],"type":"Point"},"properties":{"DataAccess":"IMPROVE","Link":"http://www.nature.nps.gov/assets/intercept/?addr=http://vista.cira.colostate.edu/improve/data/data.htm","ImNetworkID":"guln","SiteID":21,"SiteCode":"SIPS1","EPACode":"010799000","SiteName":"Sipsey Wilderness","Parameter":"Visibility","Elevation":286,"EndDate":"2013-08-29T06:00:00.000Z","StartDate":"1992-03-04T07:00:00.000Z","Active":1,"Order":3},"type":"Feature"},{"geometry":{"coordinates":[-85.9503,46.2889],"type":"Point"},"properties":{"DataAccess":"IMPROVE","Link":"http://www.nature.nps.gov/assets/intercept/?addr=http://vista.cira.colostate.edu/improve/data/data.htm","ImNetworkID":"glkn","SiteID":22,"SiteCode":"SENE1","EPACode":"261539000","SiteName":"Seney","Parameter":"Visibility","Elevation":214,"EndDate":"2013-08-29T06:00:00.000Z","StartDate":"1999-11-17T07:00:00.000Z","Active":1,"Order":3},"type":"Feature"},{"geometry":{"coordinates":[-91.4955,47.9466],"type":"Point"},"properties":{"DataAccess":"IMPROVE","Link":"http://www.nature.nps.gov/assets/intercept/?addr=http://vista.cira.colostate.edu/improve/data/data.htm","ImNetworkID":"glkn","SiteID":23,"SiteCode":"BOWA1","EPACode":"270759000","SiteName":"Boundary Waters Canoe Area","Parameter":"Visibility","Elevation":526,"EndDate":"2013-08-29T06:00:00.000Z","StartDate":"1991-06-01T06:00:00.000Z","Active":1,"Order":3},"type":"Feature"},{"geometry":{"coordinates":[-92.8303,48.4132],"type":"Point"},"properties":{"DataAccess":"IMPROVE","Link":"http://www.nature.nps.gov/assets/intercept/?addr=http://vista.cira.colostate.edu/improve/data/data.htm","ImNetworkID":"glkn","SiteID":24,"SiteCode":"VOYA1","EPACode":"271379001","SiteName":"Voyageurs NP #1","Parameter":"Visibility","Elevation":425,"EndDate":"1999-12-29T07:00:00.000Z","StartDate":"1988-03-02T07:00:00.000Z","Active":0,"Order":3},"type":"Feature"},{"geometry":{"coordinates":[-88.1491,47.4596],"type":"Point"},"properties":{"DataAccess":"IMPROVE","Link":"http://www.nature.nps.gov/assets/intercept/?addr=http://vista.cira.colostate.edu/improve/data/data.htm","ImNetworkID":"glkn","SiteID":25,"SiteCode":"ISLE1","EPACode":"260839000","SiteName":"Isle Royale NP","Parameter":"Visibility","Elevation":182,"EndDate":"2013-08-29T06:00:00.000Z","StartDate":"1999-11-17T07:00:00.000Z","Active":1,"Order":3},"type":"Feature"},{"geometry":{"coordinates":[-90.1432,36.9717],"type":"Point"},"properties":{"DataAccess":"IMPROVE","Link":"http://www.nature.nps.gov/assets/intercept/?addr=http://vista.cira.colostate.edu/improve/data/data.htm","ImNetworkID":"htln","SiteID":26,"SiteCode":"MING1","EPACode":"292070001","SiteName":"Mingo","Parameter":"Visibility","Elevation":111,"EndDate":"2013-08-29T06:00:00.000Z","StartDate":"2000-06-03T06:00:00.000Z","Active":1,"Order":3},"type":"Feature"},{"geometry":{"coordinates":[-93.203,35.8258],"type":"Point"},"properties":{"DataAccess":"IMPROVE","Link":"http://www.nature.nps.gov/assets/intercept/?addr=http://vista.cira.colostate.edu/improve/data/data.htm","ImNetworkID":"htln","SiteID":27,"SiteCode":"UPBU1","EPACode":"051019000","SiteName":"Upper Buffalo Wilderness","Parameter":"Visibility","Elevation":722,"EndDate":"2013-08-29T06:00:00.000Z","StartDate":"1991-12-04T07:00:00.000Z","Active":1,"Order":3},"type":"Feature"},{"geometry":{"coordinates":[-92.9221,36.6138],"type":"Point"},"properties":{"DataAccess":"IMPROVE","Link":"http://www.nature.nps.gov/assets/intercept/?addr=http://vista.cira.colostate.edu/improve/data/data.htm","ImNetworkID":"htln","SiteID":28,"SiteCode":"HEGL1","EPACode":"292130003","SiteName":"Hercules-Glades","Parameter":"Visibility","Elevation":404,"EndDate":"2013-08-29T06:00:00.000Z","StartDate":"2001-03-02T07:00:00.000Z","Active":1,"Order":3},"type":"Feature"},{"geometry":{"coordinates":[-94.1429,34.4544],"type":"Point"},"properties":{"DataAccess":"IMPROVE","Link":"http://www.nature.nps.gov/assets/intercept/?addr=http://vista.cira.colostate.edu/improve/data/data.htm","ImNetworkID":"htln","SiteID":29,"SiteCode":"CACR1","EPACode":"051130003","SiteName":"Caney Creek","Parameter":"Visibility","Elevation":683,"EndDate":"2013-08-29T06:00:00.000Z","StartDate":"2000-06-24T06:00:00.000Z","Active":1,"Order":3},"type":"Feature"},{"geometry":{"coordinates":[-98.713,34.7323],"type":"Point"},"properties":{"DataAccess":"IMPROVE","Link":"http://www.nature.nps.gov/assets/intercept/?addr=http://vista.cira.colostate.edu/improve/data/data.htm","ImNetworkID":"sopn","SiteID":30,"SiteCode":"WIMO1","EPACode":"400319000","SiteName":"Wichita Mountains","Parameter":"Visibility","Elevation":509,"EndDate":"2013-08-29T06:00:00.000Z","StartDate":"2001-03-02T07:00:00.000Z","Active":1,"Order":3},"type":"Feature"},{"geometry":{"coordinates":[-103.178,29.3027],"type":"Point"},"properties":{"DataAccess":"IMPROVE","Link":"http://www.nature.nps.gov/assets/intercept/?addr=http://vista.cira.colostate.edu/improve/data/data.htm","ImNetworkID":"chdn","SiteID":31,"SiteCode":"BIBE1","EPACode":"480430101","SiteName":"Big Bend NP","Parameter":"Visibility","Elevation":1066,"EndDate":"2013-08-29T06:00:00.000Z","StartDate":"1988-03-02T07:00:00.000Z","Active":1,"Order":3},"type":"Feature"},{"geometry":{"coordinates":[-104.8094,31.833],"type":"Point"},"properties":{"DataAccess":"IMPROVE","Link":"http://www.nature.nps.gov/assets/intercept/?addr=http://vista.cira.colostate.edu/improve/data/data.htm","ImNetworkID":"chdn","SiteID":32,"SiteCode":"GUMO1","EPACode":"481099000","SiteName":"Guadalupe Mountains NP","Parameter":"Visibility","Elevation":1672,"EndDate":"2013-08-29T06:00:00.000Z","StartDate":"1988-03-02T07:00:00.000Z","Active":1,"Order":3},"type":"Feature"},{"geometry":{"coordinates":[-106.2664,35.7797],"type":"Point"},"properties":{"DataAccess":"IMPROVE","Link":"http://www.nature.nps.gov/assets/intercept/?addr=http://vista.cira.colostate.edu/improve/data/data.htm","ImNetworkID":"scpn","SiteID":33,"SiteCode":"BAND1","EPACode":"350281002","SiteName":"Bandelier NM","Parameter":"Visibility","Elevation":1988,"EndDate":"2013-08-29T06:00:00.000Z","StartDate":"1988-03-02T07:00:00.000Z","Active":1,"Order":3},"type":"Feature"},{"geometry":{"coordinates":[-106.8447,36.0139],"type":"Point"},"properties":{"DataAccess":"IMPROVE","Link":"http://www.nature.nps.gov/assets/intercept/?addr=http://vista.cira.colostate.edu/improve/data/data.htm","ImNetworkID":"scpn","SiteID":34,"SiteCode":"SAPE1","EPACode":"350399000","SiteName":"San Pedro Parks","Parameter":"Visibility","Elevation":2935,"EndDate":"2013-08-29T06:00:00.000Z","StartDate":"2000-08-16T06:00:00.000Z","Active":1,"Order":3},"type":"Feature"},{"geometry":{"coordinates":[-105.452,36.5854],"type":"Point"},"properties":{"DataAccess":"IMPROVE","Link":"http://www.nature.nps.gov/assets/intercept/?addr=http://vista.cira.colostate.edu/improve/data/data.htm","ImNetworkID":"sopn","SiteID":35,"SiteCode":"WHPE1","EPACode":"350559000","SiteName":"Wheeler Peak","Parameter":"Visibility","Elevation":3366,"EndDate":"2013-08-29T06:00:00.000Z","StartDate":"2000-08-16T06:00:00.000Z","Active":1,"Order":3},"type":"Feature"},{"geometry":{"coordinates":[-104.4042,33.4598],"type":"Point"},"properties":{"DataAccess":"IMPROVE","Link":"http://www.nature.nps.gov/assets/intercept/?addr=http://vista.cira.colostate.edu/improve/data/data.htm","ImNetworkID":"chdn","SiteID":36,"SiteCode":"SACR1","EPACode":"350059000","SiteName":"Salt Creek","Parameter":"Visibility","Elevation":1072,"EndDate":"2013-08-29T06:00:00.000Z","StartDate":"2000-04-08T06:00:00.000Z","Active":1,"Order":3},"type":"Feature"},{"geometry":{"coordinates":[-105.5349,33.4687],"type":"Point"},"properties":{"DataAccess":"IMPROVE","Link":"http://www.nature.nps.gov/assets/intercept/?addr=http://vista.cira.colostate.edu/improve/data/data.htm","ImNetworkID":"chdn","SiteID":37,"SiteCode":"WHIT1","EPACode":"350279000","SiteName":"White Mountain","Parameter":"Visibility","Elevation":2063,"EndDate":"2013-08-29T06:00:00.000Z","StartDate":"2001-12-03T07:00:00.000Z","Active":1,"Order":3},"type":"Feature"},{"geometry":{"coordinates":[-106.852,33.8695],"type":"Point"},"properties":{"DataAccess":"IMPROVE","Link":"http://www.nature.nps.gov/assets/intercept/?addr=http://vista.cira.colostate.edu/improve/data/data.htm","ImNetworkID":"scpn","SiteID":38,"SiteCode":"BOAP1","EPACode":"350539000","SiteName":"Bosque del Apache","Parameter":"Visibility","Elevation":1389,"EndDate":"2013-08-29T06:00:00.000Z","StartDate":"2000-04-15T06:00:00.000Z","Active":1,"Order":3},"type":"Feature"},{"geometry":{"coordinates":[-109.389,32.0094],"type":"Point"},"properties":{"DataAccess":"IMPROVE","Link":"http://www.nature.nps.gov/assets/intercept/?addr=http://vista.cira.colostate.edu/improve/data/data.htm","ImNetworkID":"sodn","SiteID":39,"SiteCode":"CHIR1","EPACode":"040038001","SiteName":"Chiricahua NM","Parameter":"Visibility","Elevation":1554,"EndDate":"2013-08-29T06:00:00.000Z","StartDate":"1988-03-02T07:00:00.000Z","Active":1,"Order":3},"type":"Feature"},{"geometry":{"coordinates":[-110.7371,32.1746],"type":"Point"},"properties":{"DataAccess":"IMPROVE","Link":"http://www.nature.nps.gov/assets/intercept/?addr=http://vista.cira.colostate.edu/improve/data/data.htm","ImNetworkID":"sodn","SiteID":40,"SiteCode":"SAGU1","EPACode":"040190021","SiteName":"Saguaro NM","Parameter":"Visibility","Elevation":941,"EndDate":"2013-08-29T06:00:00.000Z","StartDate":"1988-06-01T06:00:00.000Z","Active":1,"Order":3},"type":"Feature"},{"geometry":{"coordinates":[-109.7692,35.0777],"type":"Point"},"properties":{"DataAccess":"IMPROVE","Link":"http://www.nature.nps.gov/assets/intercept/?addr=http://vista.cira.colostate.edu/improve/data/data.htm","ImNetworkID":"scpn","SiteID":41,"SiteCode":"PEFO1","EPACode":"040170119","SiteName":"Petrified Forest NP","Parameter":"Visibility","Elevation":1766,"EndDate":"2013-08-29T06:00:00.000Z","StartDate":"1988-03-02T07:00:00.000Z","Active":1,"Order":3},"type":"Feature"},{"geometry":{"coordinates":[-108.2351,33.2204],"type":"Point"},"properties":{"DataAccess":"IMPROVE","Link":"http://www.nature.nps.gov/assets/intercept/?addr=http://vista.cira.colostate.edu/improve/data/data.htm","ImNetworkID":"sodn","SiteID":42,"SiteCode":"GICL1","EPACode":"350039000","SiteName":"Gila Wilderness","Parameter":"Visibility","Elevation":1775,"EndDate":"2013-08-29T06:00:00.000Z","StartDate":"1994-03-02T07:00:00.000Z","Active":1,"Order":3},"type":"Feature"},{"geometry":{"coordinates":[-109.4406,34.0584],"type":"Point"},"properties":{"DataAccess":"IMPROVE","Link":"http://www.nature.nps.gov/assets/intercept/?addr=http://vista.cira.colostate.edu/improve/data/data.htm","ImNetworkID":"scpn","SiteID":43,"SiteCode":"BALD1","EPACode":"040018001","SiteName":"Mount Baldy","Parameter":"Visibility","Elevation":2508,"EndDate":"2013-08-29T06:00:00.000Z","StartDate":"2000-03-01T07:00:00.000Z","Active":1,"Order":3},"type":"Feature"},{"geometry":{"coordinates":[-111.1068,33.6548],"type":"Point"},"properties":{"DataAccess":"IMPROVE","Link":"http://www.nature.nps.gov/assets/intercept/?addr=http://vista.cira.colostate.edu/improve/data/data.htm","ImNetworkID":"sodn","SiteID":44,"SiteCode":"TONT1","EPACode":"040070010","SiteName":"Tonto NM","Parameter":"Visibility","Elevation":775,"EndDate":"2013-08-29T06:00:00.000Z","StartDate":"1988-03-02T07:00:00.000Z","Active":1,"Order":3},"type":"Feature"},{"geometry":{"coordinates":[-110.9421,34.0908],"type":"Point"},"properties":{"DataAccess":"IMPROVE","Link":"http://www.nature.nps.gov/assets/intercept/?addr=http://vista.cira.colostate.edu/improve/data/data.htm","ImNetworkID":"sodn","SiteID":45,"SiteCode":"SIAN1","EPACode":"040078100","SiteName":"Sierra Ancha","Parameter":"Visibility","Elevation":1600,"EndDate":"2013-08-29T06:00:00.000Z","StartDate":"2000-02-09T07:00:00.000Z","Active":1,"Order":3},"type":"Feature"},{"geometry":{"coordinates":[-111.6832,34.3405],"type":"Point"},"properties":{"DataAccess":"IMPROVE","Link":"http://www.nature.nps.gov/assets/intercept/?addr=http://vista.cira.colostate.edu/improve/data/data.htm","ImNetworkID":"sodn","SiteID":46,"SiteCode":"IKBA1","EPACode":"040258104","SiteName":"Ike's Backbone","Parameter":"Visibility","Elevation":1297,"EndDate":"2013-08-29T06:00:00.000Z","StartDate":"2000-03-29T07:00:00.000Z","Active":1,"Order":3},"type":"Feature"},{"geometry":{"coordinates":[-111.9692,35.1406],"type":"Point"},"properties":{"DataAccess":"IMPROVE","Link":"http://www.nature.nps.gov/assets/intercept/?addr=http://vista.cira.colostate.edu/improve/data/data.htm","ImNetworkID":"scpn","SiteID":47,"SiteCode":"SYCA1","EPACode":"040058103","SiteName":"Sycamore Canyon","Parameter":"Visibility","Elevation":2046,"EndDate":"2013-08-29T06:00:00.000Z","StartDate":"1991-09-04T06:00:00.000Z","Active":1,"Order":3},"type":"Feature"},{"geometry":{"coordinates":[-111.9841,35.9731],"type":"Point"},"properties":{"DataAccess":"IMPROVE","Link":"http://www.nature.nps.gov/assets/intercept/?addr=http://vista.cira.colostate.edu/improve/data/data.htm","ImNetworkID":"scpn","SiteID":48,"SiteCode":"GRCA2","EPACode":"040058102","SiteName":"Hance Camp at Grand Canyon NP","Parameter":"Visibility","Elevation":2267,"EndDate":"2013-08-29T06:00:00.000Z","StartDate":"1996-03-02T07:00:00.000Z","Active":1,"Order":3},"type":"Feature"},{"geometry":{"coordinates":[-112.1736,37.6184],"type":"Point"},"properties":{"DataAccess":"IMPROVE","Link":"http://www.nature.nps.gov/assets/intercept/?addr=http://vista.cira.colostate.edu/improve/data/data.htm","ImNetworkID":"ncpn","SiteID":49,"SiteCode":"BRCA1","EPACode":"490170101","SiteName":"Bryce Canyon NP","Parameter":"Visibility","Elevation":2481,"EndDate":"2013-08-29T06:00:00.000Z","StartDate":"1988-03-02T07:00:00.000Z","Active":1,"Order":3},"type":"Feature"},{"geometry":{"coordinates":[-109.821,38.4587],"type":"Point"},"properties":{"DataAccess":"IMPROVE","Link":"http://www.nature.nps.gov/assets/intercept/?addr=http://vista.cira.colostate.edu/improve/data/data.htm","ImNetworkID":"ncpn","SiteID":50,"SiteCode":"CANY1","EPACode":"490379000","SiteName":"Canyonlands NP","Parameter":"Visibility","Elevation":1798,"EndDate":"2013-08-29T06:00:00.000Z","StartDate":"1988-03-02T07:00:00.000Z","Active":1,"Order":3},"type":"Feature"},{"geometry":{"coordinates":[-113.2243,37.4591],"type":"Point"},"properties":{"DataAccess":"IMPROVE","Link":"http://www.nature.nps.gov/assets/intercept/?addr=http://vista.cira.colostate.edu/improve/data/data.htm","ImNetworkID":"ncpn","SiteID":51,"SiteCode":"ZION1","EPACode":"490539000","SiteName":"Zion","Parameter":"Visibility","Elevation":1545,"EndDate":"2004-08-22T06:00:00.000Z","StartDate":"2000-03-25T07:00:00.000Z","Active":0,"Order":3},"type":"Feature"},{"geometry":{"coordinates":[-111.2926,38.3022],"type":"Point"},"properties":{"DataAccess":"IMPROVE","Link":"http://www.nature.nps.gov/assets/intercept/?addr=http://vista.cira.colostate.edu/improve/data/data.htm","ImNetworkID":"ncpn","SiteID":52,"SiteCode":"CAPI1","EPACode":"490559000","SiteName":"Capitol Reef NP","Parameter":"Visibility","Elevation":1896,"EndDate":"2013-08-29T06:00:00.000Z","StartDate":"2000-04-19T06:00:00.000Z","Active":1,"Order":3},"type":"Feature"},{"geometry":{"coordinates":[-105.5185,37.7249],"type":"Point"},"properties":{"DataAccess":"IMPROVE","Link":"http://www.nature.nps.gov/assets/intercept/?addr=http://vista.cira.colostate.edu/improve/data/data.htm","ImNetworkID":"romn","SiteID":53,"SiteCode":"GRSA1","EPACode":"080039000","SiteName":"Great Sand Dunes NM","Parameter":"Visibility","Elevation":2498,"EndDate":"2013-08-29T06:00:00.000Z","StartDate":"1988-03-02T07:00:00.000Z","Active":1,"Order":3},"type":"Feature"},{"geometry":{"coordinates":[-108.4907,37.1984],"type":"Point"},"properties":{"DataAccess":"IMPROVE","Link":"http://www.nature.nps.gov/assets/intercept/?addr=http://vista.cira.colostate.edu/improve/data/data.htm","ImNetworkID":"scpn","SiteID":54,"SiteCode":"MEVE1","EPACode":"080839000","SiteName":"Mesa Verde NP","Parameter":"Visibility","Elevation":2172,"EndDate":"2013-08-29T06:00:00.000Z","StartDate":"1988-03-02T07:00:00.000Z","Active":1,"Order":3},"type":"Feature"},{"geometry":{"coordinates":[-107.7999,37.6594],"type":"Point"},"properties":{"DataAccess":"IMPROVE","Link":"http://www.nature.nps.gov/assets/intercept/?addr=http://vista.cira.colostate.edu/improve/data/data.htm","ImNetworkID":"ncpn","SiteID":55,"SiteCode":"WEMI1","EPACode":"081119000","SiteName":"Weminuche Wilderness","Parameter":"Visibility","Elevation":2750,"EndDate":"2013-08-29T06:00:00.000Z","StartDate":"1988-03-02T07:00:00.000Z","Active":1,"Order":3},"type":"Feature"},{"geometry":{"coordinates":[-106.8209,39.1536],"type":"Point"},"properties":{"DataAccess":"IMPROVE","Link":"http://www.nature.nps.gov/assets/intercept/?addr=http://vista.cira.colostate.edu/improve/data/data.htm","ImNetworkID":"ncpn","SiteID":56,"SiteCode":"WHRI1","EPACode":"080979000","SiteName":"White River NF","Parameter":"Visibility","Elevation":3413,"EndDate":"2013-08-29T06:00:00.000Z","StartDate":"1993-06-02T06:00:00.000Z","Active":1,"Order":3},"type":"Feature"},{"geometry":{"coordinates":[-105.5457,40.2783],"type":"Point"},"properties":{"DataAccess":"IMPROVE","Link":"http://www.nature.nps.gov/assets/intercept/?addr=http://vista.cira.colostate.edu/improve/data/data.htm","ImNetworkID":"romn","SiteID":57,"SiteCode":"ROMO1","EPACode":"080699001","SiteName":"Rocky Mountain NP","Parameter":"Visibility","Elevation":2760,"EndDate":"2013-08-29T06:00:00.000Z","StartDate":"1990-09-01T06:00:00.000Z","Active":1,"Order":3},"type":"Feature"},{"geometry":{"coordinates":[-106.6766,40.5383],"type":"Point"},"properties":{"DataAccess":"IMPROVE","Link":"http://www.nature.nps.gov/assets/intercept/?addr=http://vista.cira.colostate.edu/improve/data/data.htm","ImNetworkID":"romn","SiteID":58,"SiteCode":"MOZI1","EPACode":"080579000","SiteName":"Mount Zirkel Wilderness","Parameter":"Visibility","Elevation":3243,"EndDate":"2013-08-29T06:00:00.000Z","StartDate":"1994-06-01T06:00:00.000Z","Active":1,"Order":3},"type":"Feature"},{"geometry":{"coordinates":[-101.9412,43.7435],"type":"Point"},"properties":{"DataAccess":"IMPROVE","Link":"http://www.nature.nps.gov/assets/intercept/?addr=http://vista.cira.colostate.edu/improve/data/data.htm","ImNetworkID":"ngpn","SiteID":59,"SiteCode":"BADL1","EPACode":"460710001","SiteName":"Badlands NP","Parameter":"Visibility","Elevation":736,"EndDate":"2013-08-29T06:00:00.000Z","StartDate":"1988-03-02T07:00:00.000Z","Active":1,"Order":3},"type":"Feature"},{"geometry":{"coordinates":[-103.4838,43.5576],"type":"Point"},"properties":{"DataAccess":"IMPROVE","Link":"http://www.nature.nps.gov/assets/intercept/?addr=http://vista.cira.colostate.edu/improve/data/data.htm","ImNetworkID":"ngpn","SiteID":60,"SiteCode":"WICA1","EPACode":"460330132","SiteName":"Wind Cave","Parameter":"Visibility","Elevation":1296,"EndDate":"2013-08-29T06:00:00.000Z","StartDate":"1999-12-15T07:00:00.000Z","Active":1,"Order":3},"type":"Feature"},{"geometry":{"coordinates":[-103.3777,46.8948],"type":"Point"},"properties":{"DataAccess":"IMPROVE","Link":"http://www.nature.nps.gov/assets/intercept/?addr=http://vista.cira.colostate.edu/improve/data/data.htm","ImNetworkID":"ngpn","SiteID":61,"SiteCode":"THRO1","EPACode":"380070002","SiteName":"Theodore Roosevelt","Parameter":"Visibility","Elevation":852,"EndDate":"2013-08-29T06:00:00.000Z","StartDate":"1999-12-15T07:00:00.000Z","Active":1,"Order":3},"type":"Feature"},{"geometry":{"coordinates":[-102.4022,48.6419],"type":"Point"},"properties":{"DataAccess":"IMPROVE","Link":"http://www.nature.nps.gov/assets/intercept/?addr=http://vista.cira.colostate.edu/improve/data/data.htm","ImNetworkID":"ngpn","SiteID":62,"SiteCode":"LOST1","EPACode":"380130004","SiteName":"Lostwood","Parameter":"Visibility","Elevation":696,"EndDate":"2013-08-29T06:00:00.000Z","StartDate":"1999-12-15T07:00:00.000Z","Active":1,"Order":3},"type":"Feature"},{"geometry":{"coordinates":[-104.4757,48.4871],"type":"Point"},"properties":{"DataAccess":"IMPROVE","Link":"http://www.nature.nps.gov/assets/intercept/?addr=http://vista.cira.colostate.edu/improve/data/data.htm","ImNetworkID":"ngpn","SiteID":63,"SiteCode":"MELA1","EPACode":"300919000","SiteName":"Medicine Lake","Parameter":"Visibility","Elevation":606,"EndDate":"2013-08-29T06:00:00.000Z","StartDate":"1999-12-15T07:00:00.000Z","Active":1,"Order":3},"type":"Feature"},{"geometry":{"coordinates":[-108.7196,47.5823],"type":"Point"},"properties":{"DataAccess":"IMPROVE","Link":"http://www.nature.nps.gov/assets/intercept/?addr=http://vista.cira.colostate.edu/improve/data/data.htm","ImNetworkID":"romn","SiteID":64,"SiteCode":"ULBE1","EPACode":"300279000","SiteName":"UL Bend","Parameter":"Visibility","Elevation":891,"EndDate":"2013-08-29T06:00:00.000Z","StartDate":"2000-01-26T07:00:00.000Z","Active":1,"Order":3},"type":"Feature"},{"geometry":{"coordinates":[-109.7579,42.9749],"type":"Point"},"properties":{"DataAccess":"IMPROVE","Link":"http://www.nature.nps.gov/assets/intercept/?addr=http://vista.cira.colostate.edu/improve/data/data.htm","ImNetworkID":"gryn","SiteID":65,"SiteCode":"BRID1","EPACode":"560359000","SiteName":"Bridger Wilderness","Parameter":"Visibility","Elevation":2626,"EndDate":"2013-08-29T06:00:00.000Z","StartDate":"1988-03-02T07:00:00.000Z","Active":1,"Order":3},"type":"Feature"},{"geometry":{"coordinates":[-110.4003,44.5654],"type":"Point"},"properties":{"DataAccess":"IMPROVE","Link":"http://www.nature.nps.gov/assets/intercept/?addr=http://vista.cira.colostate.edu/improve/data/data.htm","ImNetworkID":"gryn","SiteID":66,"SiteCode":"YELL1","EPACode":"560399001","SiteName":"Yellowstone NP 1","Parameter":"Visibility","Elevation":2442,"EndDate":"1999-12-29T07:00:00.000Z","StartDate":"1988-03-09T07:00:00.000Z","Active":0,"Order":3},"type":"Feature"},{"geometry":{"coordinates":[-109.3816,44.7448],"type":"Point"},"properties":{"DataAccess":"IMPROVE","Link":"http://www.nature.nps.gov/assets/intercept/?addr=http://vista.cira.colostate.edu/improve/data/data.htm","ImNetworkID":"gryn","SiteID":67,"SiteCode":"NOAB1","EPACode":"560299002","SiteName":"North Absaroka","Parameter":"Visibility","Elevation":2482,"EndDate":"2013-08-29T06:00:00.000Z","StartDate":"2000-01-26T07:00:00.000Z","Active":1,"Order":3},"type":"Feature"},{"geometry":{"coordinates":[-115.4261,41.8926],"type":"Point"},"properties":{"DataAccess":"IMPROVE","Link":"http://www.nature.nps.gov/assets/intercept/?addr=http://vista.cira.colostate.edu/improve/data/data.htm","ImNetworkID":"ucbn","SiteID":68,"SiteCode":"JARB1","EPACode":"320079000","SiteName":"Jarbidge Wilderness","Parameter":"Visibility","Elevation":1869,"EndDate":"2013-08-29T06:00:00.000Z","StartDate":"1988-03-02T07:00:00.000Z","Active":1,"Order":3},"type":"Feature"},{"geometry":{"coordinates":[-113.5551,43.4605],"type":"Point"},"properties":{"DataAccess":"IMPROVE","Link":"http://www.nature.nps.gov/assets/intercept/?addr=http://vista.cira.colostate.edu/improve/data/data.htm","ImNetworkID":"ucbn","SiteID":69,"SiteCode":"CRMO1","EPACode":"160230101","SiteName":"Craters of the Moon NM","Parameter":"Visibility","Elevation":1817,"EndDate":"2013-08-29T06:00:00.000Z","StartDate":"1992-03-04T07:00:00.000Z","Active":1,"Order":3},"type":"Feature"},{"geometry":{"coordinates":[-114.9271,44.1705],"type":"Point"},"properties":{"DataAccess":"IMPROVE","Link":"http://www.nature.nps.gov/assets/intercept/?addr=http://vista.cira.colostate.edu/improve/data/data.htm","ImNetworkID":"ucbn","SiteID":70,"SiteCode":"SAWT1","EPACode":"160370002","SiteName":"Sawtooth NF","Parameter":"Visibility","Elevation":1990,"EndDate":"2013-08-29T06:00:00.000Z","StartDate":"1993-12-01T07:00:00.000Z","Active":1,"Order":3},"type":"Feature"},{"geometry":{"coordinates":[-114.0001,45.8598],"type":"Point"},"properties":{"DataAccess":"IMPROVE","Link":"http://www.nature.nps.gov/assets/intercept/?addr=http://vista.cira.colostate.edu/improve/data/data.htm","ImNetworkID":"ucbn","SiteID":71,"SiteCode":"SULA1","EPACode":"300819000","SiteName":"Sula Peak","Parameter":"Visibility","Elevation":1895,"EndDate":"2013-08-29T06:00:00.000Z","StartDate":"1994-06-01T06:00:00.000Z","Active":1,"Order":3},"type":"Feature"},{"geometry":{"coordinates":[-113.9966,48.5105],"type":"Point"},"properties":{"DataAccess":"IMPROVE","Link":"http://www.nature.nps.gov/assets/intercept/?addr=http://vista.cira.colostate.edu/improve/data/data.htm","ImNetworkID":"romn","SiteID":72,"SiteCode":"GLAC1","EPACode":"300299001","SiteName":"Glacier NP","Parameter":"Visibility","Elevation":975,"EndDate":"2013-08-29T06:00:00.000Z","StartDate":"1988-03-02T07:00:00.000Z","Active":1,"Order":3},"type":"Feature"},{"geometry":{"coordinates":[-113.1544,47.1222],"type":"Point"},"properties":{"DataAccess":"IMPROVE","Link":"http://www.nature.nps.gov/assets/intercept/?addr=http://vista.cira.colostate.edu/improve/data/data.htm","ImNetworkID":"romn","SiteID":73,"SiteCode":"MONT1","EPACode":"300779000","SiteName":"Monture","Parameter":"Visibility","Elevation":1282,"EndDate":"2013-08-29T06:00:00.000Z","StartDate":"2000-03-29T07:00:00.000Z","Active":1,"Order":3},"type":"Feature"},{"geometry":{"coordinates":[-111.7107,46.8262],"type":"Point"},"properties":{"DataAccess":"IMPROVE","Link":"http://www.nature.nps.gov/assets/intercept/?addr=http://vista.cira.colostate.edu/improve/data/data.htm","ImNetworkID":"romn","SiteID":74,"SiteCode":"GAMO1","EPACode":"300499000","SiteName":"Gates of the Mountains","Parameter":"Visibility","Elevation":2387,"EndDate":"2013-08-29T06:00:00.000Z","StartDate":"2000-07-26T06:00:00.000Z","Active":1,"Order":3},"type":"Feature"},{"geometry":{"coordinates":[-115.6709,47.9549],"type":"Point"},"properties":{"DataAccess":"IMPROVE","Link":"http://www.nature.nps.gov/assets/intercept/?addr=http://vista.cira.colostate.edu/improve/data/data.htm","ImNetworkID":"romn","SiteID":75,"SiteCode":"CABI1","EPACode":"300899000","SiteName":"Cabinet Mountains","Parameter":"Visibility","Elevation":1441,"EndDate":"2013-08-29T06:00:00.000Z","StartDate":"2000-07-26T06:00:00.000Z","Active":1,"Order":3},"type":"Feature"},{"geometry":{"coordinates":[-118.5129,45.2249],"type":"Point"},"properties":{"DataAccess":"IMPROVE","Link":"http://www.nature.nps.gov/assets/intercept/?addr=http://vista.cira.colostate.edu/improve/data/data.htm","ImNetworkID":"ucbn","SiteID":76,"SiteCode":"STAR1","EPACode":"410610010","SiteName":"Starkey","Parameter":"Visibility","Elevation":1259,"EndDate":"2013-08-29T06:00:00.000Z","StartDate":"2000-03-15T07:00:00.000Z","Active":1,"Order":3},"type":"Feature"},{"geometry":{"coordinates":[-116.8438,44.9702],"type":"Point"},"properties":{"DataAccess":"IMPROVE","Link":"http://www.nature.nps.gov/assets/intercept/?addr=http://vista.cira.colostate.edu/improve/data/data.htm","ImNetworkID":"ucbn","SiteID":77,"SiteCode":"HECA1","EPACode":"410630002","SiteName":"Hells Canyon","Parameter":"Visibility","Elevation":655,"EndDate":"2013-08-29T06:00:00.000Z","StartDate":"2000-09-03T06:00:00.000Z","Active":1,"Order":3},"type":"Feature"},{"geometry":{"coordinates":[-122.1244,46.7583],"type":"Point"},"properties":{"DataAccess":"IMPROVE","Link":"http://www.nature.nps.gov/assets/intercept/?addr=http://vista.cira.colostate.edu/improve/data/data.htm","ImNetworkID":"nccn","SiteID":78,"SiteCode":"MORA1","EPACode":"530530014","SiteName":"Mount Rainier NP","Parameter":"Visibility","Elevation":439,"EndDate":"2013-08-29T06:00:00.000Z","StartDate":"1988-03-02T07:00:00.000Z","Active":1,"Order":3},"type":"Feature"},{"geometry":{"coordinates":[-121.3881,46.6243],"type":"Point"},"properties":{"DataAccess":"IMPROVE","Link":"http://www.nature.nps.gov/assets/intercept/?addr=http://vista.cira.colostate.edu/improve/data/data.htm","ImNetworkID":"nccn","SiteID":79,"SiteCode":"WHPA1","EPACode":"530410007","SiteName":"White Pass","Parameter":"Visibility","Elevation":1827,"EndDate":"2013-08-29T06:00:00.000Z","StartDate":"2000-02-16T07:00:00.000Z","Active":1,"Order":3},"type":"Feature"},{"geometry":{"coordinates":[-121.4259,47.422],"type":"Point"},"properties":{"DataAccess":"IMPROVE","Link":"http://www.nature.nps.gov/assets/intercept/?addr=http://vista.cira.colostate.edu/improve/data/data.htm","ImNetworkID":"nccn","SiteID":80,"SiteCode":"SNPA1","EPACode":"530370004","SiteName":"Snoqualmie Pass","Parameter":"Visibility","Elevation":1049,"EndDate":"2013-08-29T06:00:00.000Z","StartDate":"1993-06-02T06:00:00.000Z","Active":1,"Order":3},"type":"Feature"},{"geometry":{"coordinates":[-121.0646,48.7316],"type":"Point"},"properties":{"DataAccess":"IMPROVE","Link":"http://www.nature.nps.gov/assets/intercept/?addr=http://vista.cira.colostate.edu/improve/data/data.htm","ImNetworkID":"nccn","SiteID":81,"SiteCode":"NOCA1","EPACode":"530730022","SiteName":"North Cascades","Parameter":"Visibility","Elevation":568,"EndDate":"2013-08-29T06:00:00.000Z","StartDate":"1997-07-30T06:00:00.000Z","Active":1,"Order":3},"type":"Feature"},{"geometry":{"coordinates":[-119.9275,48.3877],"type":"Point"},"properties":{"DataAccess":"IMPROVE","Link":"http://www.nature.nps.gov/assets/intercept/?addr=http://vista.cira.colostate.edu/improve/data/data.htm","ImNetworkID":"nccn","SiteID":82,"SiteCode":"PASA1","EPACode":"530470012","SiteName":"Pasayten","Parameter":"Visibility","Elevation":1627,"EndDate":"2013-08-29T06:00:00.000Z","StartDate":"2000-11-02T07:00:00.000Z","Active":1,"Order":3},"type":"Feature"},{"geometry":{"coordinates":[-122.9727,48.0065],"type":"Point"},"properties":{"DataAccess":"IMPROVE","Link":"http://www.nature.nps.gov/assets/intercept/?addr=http://vista.cira.colostate.edu/improve/data/data.htm","ImNetworkID":"nccn","SiteID":83,"SiteCode":"OLYM1","EPACode":"530090020","SiteName":"Olympic","Parameter":"Visibility","Elevation":599,"EndDate":"2013-08-29T06:00:00.000Z","StartDate":"2001-07-12T06:00:00.000Z","Active":1,"Order":3},"type":"Feature"},{"geometry":{"coordinates":[-122.0434,44.291],"type":"Point"},"properties":{"DataAccess":"IMPROVE","Link":"http://www.nature.nps.gov/assets/intercept/?addr=http://vista.cira.colostate.edu/improve/data/data.htm","ImNetworkID":"klmn","SiteID":84,"SiteCode":"THSI1","EPACode":"410390070","SiteName":"Three Sisters Wilderness","Parameter":"Visibility","Elevation":885,"EndDate":"2013-08-29T06:00:00.000Z","StartDate":"1993-06-02T06:00:00.000Z","Active":1,"Order":3},"type":"Feature"},{"geometry":{"coordinates":[-121.7837,45.2888],"type":"Point"},"properties":{"DataAccess":"IMPROVE","Link":"http://www.nature.nps.gov/assets/intercept/?addr=http://vista.cira.colostate.edu/improve/data/data.htm","ImNetworkID":"nccn","SiteID":85,"SiteCode":"MOHO1","EPACode":"410050010","SiteName":"Mount Hood","Parameter":"Visibility","Elevation":1531,"EndDate":"2013-08-29T06:00:00.000Z","StartDate":"2000-03-15T07:00:00.000Z","Active":1,"Order":3},"type":"Feature"},{"geometry":{"coordinates":[-122.1361,42.8958],"type":"Point"},"properties":{"DataAccess":"IMPROVE","Link":"http://www.nature.nps.gov/assets/intercept/?addr=http://vista.cira.colostate.edu/improve/data/data.htm","ImNetworkID":"klmn","SiteID":86,"SiteCode":"CRLA1","EPACode":"410358001","SiteName":"Crater Lake NP","Parameter":"Visibility","Elevation":1996,"EndDate":"2013-08-29T06:00:00.000Z","StartDate":"1988-03-02T07:00:00.000Z","Active":1,"Order":3},"type":"Feature"},{"geometry":{"coordinates":[-121.5068,41.7117],"type":"Point"},"properties":{"DataAccess":"IMPROVE","Link":"http://www.nature.nps.gov/assets/intercept/?addr=http://vista.cira.colostate.edu/improve/data/data.htm","ImNetworkID":"klmn","SiteID":87,"SiteCode":"LABE1","EPACode":"060930005","SiteName":"Lava Beds NM","Parameter":"Visibility","Elevation":1459,"EndDate":"2013-08-29T06:00:00.000Z","StartDate":"2000-03-29T07:00:00.000Z","Active":1,"Order":3},"type":"Feature"},{"geometry":{"coordinates":[-124.0839,41.5608],"type":"Point"},"properties":{"DataAccess":"IMPROVE","Link":"http://www.nature.nps.gov/assets/intercept/?addr=http://vista.cira.colostate.edu/improve/data/data.htm","ImNetworkID":"klmn","SiteID":88,"SiteCode":"REDW1","EPACode":"060150002","SiteName":"Redwood NP","Parameter":"Visibility","Elevation":243,"EndDate":"2013-08-29T06:00:00.000Z","StartDate":"1988-03-02T07:00:00.000Z","Active":1,"Order":3},"type":"Feature"},{"geometry":{"coordinates":[-124.0589,42.552],"type":"Point"},"properties":{"DataAccess":"IMPROVE","Link":"http://www.nature.nps.gov/assets/intercept/?addr=http://vista.cira.colostate.edu/improve/data/data.htm","ImNetworkID":"klmn","SiteID":89,"SiteCode":"KALM1","EPACode":"410330010","SiteName":"Kalmiopsis","Parameter":"Visibility","Elevation":80,"EndDate":"2013-08-29T06:00:00.000Z","StartDate":"2000-03-11T07:00:00.000Z","Active":1,"Order":3},"type":"Feature"},{"geometry":{"coordinates":[-121.5768,40.5398],"type":"Point"},"properties":{"DataAccess":"IMPROVE","Link":"http://www.nature.nps.gov/assets/intercept/?addr=http://vista.cira.colostate.edu/improve/data/data.htm","ImNetworkID":"klmn","SiteID":90,"SiteCode":"LAVO1","EPACode":"060893003","SiteName":"Lassen Volcanic NP","Parameter":"Visibility","Elevation":1732,"EndDate":"2013-08-29T06:00:00.000Z","StartDate":"1988-03-02T07:00:00.000Z","Active":1,"Order":3},"type":"Feature"},{"geometry":{"coordinates":[-122.9085,38.1224],"type":"Point"},"properties":{"DataAccess":"IMPROVE","Link":"http://www.nature.nps.gov/assets/intercept/?addr=http://vista.cira.colostate.edu/improve/data/data.htm","ImNetworkID":"sfan","SiteID":91,"SiteCode":"PORE1","EPACode":"060410002","SiteName":"Point Reyes National Seashore","Parameter":"Visibility","Elevation":97,"EndDate":"2013-08-29T06:00:00.000Z","StartDate":"1988-03-02T07:00:00.000Z","Active":1,"Order":3},"type":"Feature"},{"geometry":{"coordinates":[-121.1568,36.4833],"type":"Point"},"properties":{"DataAccess":"IMPROVE","Link":"http://www.nature.nps.gov/assets/intercept/?addr=http://vista.cira.colostate.edu/improve/data/data.htm","ImNetworkID":"sfan","SiteID":92,"SiteCode":"PINN1","EPACode":"060690003","SiteName":"Pinnacles NM","Parameter":"Visibility","Elevation":302,"EndDate":"2013-08-29T06:00:00.000Z","StartDate":"1988-03-02T07:00:00.000Z","Active":1,"Order":3},"type":"Feature"},{"geometry":{"coordinates":[-118.0282,34.2969],"type":"Point"},"properties":{"DataAccess":"IMPROVE","Link":"http://www.nature.nps.gov/assets/intercept/?addr=http://vista.cira.colostate.edu/improve/data/data.htm","ImNetworkID":"medn","SiteID":93,"SiteCode":"SAGA1","EPACode":"060379034","SiteName":"San Gabriel","Parameter":"Visibility","Elevation":1791,"EndDate":"2013-08-29T06:00:00.000Z","StartDate":"2001-12-03T07:00:00.000Z","Active":1,"Order":3},"type":"Feature"},{"geometry":{"coordinates":[-120.0074,34.7339],"type":"Point"},"properties":{"DataAccess":"IMPROVE","Link":"http://www.nature.nps.gov/assets/intercept/?addr=http://vista.cira.colostate.edu/improve/data/data.htm","ImNetworkID":"medn","SiteID":94,"SiteCode":"RAFA1","EPACode":"060839000","SiteName":"San Rafael","Parameter":"Visibility","Elevation":956,"EndDate":"2013-08-29T06:00:00.000Z","StartDate":"2000-02-02T07:00:00.000Z","Active":1,"Order":3},"type":"Feature"},{"geometry":{"coordinates":[-120.1025,38.9761],"type":"Point"},"properties":{"DataAccess":"IMPROVE","Link":"http://www.nature.nps.gov/assets/intercept/?addr=http://vista.cira.colostate.edu/improve/data/data.htm","ImNetworkID":"sien","SiteID":95,"SiteCode":"BLIS1","EPACode":"060179000","SiteName":"Bliss SP (TRPA)","Parameter":"Visibility","Elevation":2130,"EndDate":"2013-08-29T06:00:00.000Z","StartDate":"1990-09-01T06:00:00.000Z","Active":1,"Order":3},"type":"Feature"},{"geometry":{"coordinates":[-119.7061,37.7133],"type":"Point"},"properties":{"DataAccess":"IMPROVE","Link":"http://www.nature.nps.gov/assets/intercept/?addr=http://vista.cira.colostate.edu/improve/data/data.htm","ImNetworkID":"sien","SiteID":96,"SiteCode":"YOSE1","EPACode":"060430003","SiteName":"Yosemite NP","Parameter":"Visibility","Elevation":1603,"EndDate":"2013-08-29T06:00:00.000Z","StartDate":"1988-03-02T07:00:00.000Z","Active":1,"Order":3},"type":"Feature"},{"geometry":{"coordinates":[-119.1771,38.0881],"type":"Point"},"properties":{"DataAccess":"IMPROVE","Link":"http://www.nature.nps.gov/assets/intercept/?addr=http://vista.cira.colostate.edu/improve/data/data.htm","ImNetworkID":"sien","SiteID":97,"SiteCode":"HOOV1","EPACode":"060519000","SiteName":"Hoover","Parameter":"Visibility","Elevation":2560,"EndDate":"2013-08-29T06:00:00.000Z","StartDate":"2001-06-06T06:00:00.000Z","Active":1,"Order":3},"type":"Feature"},{"geometry":{"coordinates":[-118.8291,36.4894],"type":"Point"},"properties":{"DataAccess":"IMPROVE","Link":"http://www.nature.nps.gov/assets/intercept/?addr=http://vista.cira.colostate.edu/improve/data/data.htm","ImNetworkID":"sien","SiteID":98,"SiteCode":"SEQU1","EPACode":"061071001","SiteName":"Sequoia NP","Parameter":"Visibility","Elevation":519,"EndDate":"2013-08-29T06:00:00.000Z","StartDate":"1992-03-04T07:00:00.000Z","Active":1,"Order":3},"type":"Feature"},{"geometry":{"coordinates":[-116.9132,34.1939],"type":"Point"},"properties":{"DataAccess":"IMPROVE","Link":"http://www.nature.nps.gov/assets/intercept/?addr=http://vista.cira.colostate.edu/improve/data/data.htm","ImNetworkID":"modn","SiteID":99,"SiteCode":"SAGO1","EPACode":"060719010","SiteName":"San Gorgonio Wilderness","Parameter":"Visibility","Elevation":1726,"EndDate":"2013-08-29T06:00:00.000Z","StartDate":"1988-03-02T07:00:00.000Z","Active":1,"Order":3},"type":"Feature"},{"geometry":{"coordinates":[-116.9706,33.4636],"type":"Point"},"properties":{"DataAccess":"IMPROVE","Link":"http://www.nature.nps.gov/assets/intercept/?addr=http://vista.cira.colostate.edu/improve/data/data.htm","ImNetworkID":"medn","SiteID":100,"SiteCode":"AGTI1","EPACode":"060659000","SiteName":"Agua Tibia","Parameter":"Visibility","Elevation":507,"EndDate":"2013-08-29T06:00:00.000Z","StartDate":"2000-12-20T07:00:00.000Z","Active":1,"Order":3},"type":"Feature"},{"geometry":{"coordinates":[-116.3889,34.0695],"type":"Point"},"properties":{"DataAccess":"IMPROVE","Link":"http://www.nature.nps.gov/assets/intercept/?addr=http://vista.cira.colostate.edu/improve/data/data.htm","ImNetworkID":"modn","SiteID":101,"SiteCode":"JOSH1","EPACode":"060719002","SiteName":"Joshua Tree NP","Parameter":"Visibility","Elevation":1235,"EndDate":"2013-08-29T06:00:00.000Z","StartDate":"2000-02-23T07:00:00.000Z","Active":1,"Order":3},"type":"Feature"},{"geometry":{"coordinates":[-148.9675,63.7233],"type":"Point"},"properties":{"DataAccess":"IMPROVE","Link":"http://www.nature.nps.gov/assets/intercept/?addr=http://vista.cira.colostate.edu/improve/data/data.htm","ImNetworkID":"cakn","SiteID":102,"SiteCode":"DENA1","EPACode":"020680003","SiteName":"Denali NP","Parameter":"Visibility","Elevation":658,"EndDate":"2013-08-29T06:00:00.000Z","StartDate":"1988-03-02T07:00:00.000Z","Active":1,"Order":3},"type":"Feature"},{"geometry":{"coordinates":[-152.6656,59.9925],"type":"Point"},"properties":{"DataAccess":"IMPROVE","Link":"http://www.nature.nps.gov/assets/intercept/?addr=http://vista.cira.colostate.edu/improve/data/data.htm","ImNetworkID":"swan","SiteID":103,"SiteCode":"TUXE1","EPACode":"021220009","SiteName":"Tuxedni","Parameter":"Visibility","Elevation":15,"EndDate":"2013-08-29T06:00:00.000Z","StartDate":"2001-12-03T07:00:00.000Z","Active":1,"Order":3},"type":"Feature"},{"geometry":{"coordinates":[-122.8046,40.7864],"type":"Point"},"properties":{"DataAccess":"IMPROVE","Link":"http://www.nature.nps.gov/assets/intercept/?addr=http://vista.cira.colostate.edu/improve/data/data.htm","ImNetworkID":"klmn","SiteID":104,"SiteCode":"TRIN1","EPACode":"061059000","SiteName":"Trinity","Parameter":"Visibility","Elevation":1014,"EndDate":"2013-08-29T06:00:00.000Z","StartDate":"2000-10-18T06:00:00.000Z","Active":1,"Order":3},"type":"Feature"},{"geometry":{"coordinates":[-160.5063,55.3255],"type":"Point"},"properties":{"DataAccess":"IMPROVE","Link":"http://www.nature.nps.gov/assets/intercept/?addr=http://vista.cira.colostate.edu/improve/data/data.htm","SiteID":105,"SiteCode":"SIME1","EPACode":"020130002","SiteName":"Simeonof","Parameter":"Visibility","Elevation":57,"EndDate":"2013-08-29T06:00:00.000Z","StartDate":"2001-09-13T06:00:00.000Z","Active":1,"Order":3},"type":"Feature"},{"geometry":{"coordinates":[-64.7962,18.3363],"type":"Point"},"properties":{"DataAccess":"IMPROVE","Link":"http://www.nature.nps.gov/assets/intercept/?addr=http://vista.cira.colostate.edu/improve/data/data.htm","ImNetworkID":"sfcn","SiteID":106,"SiteCode":"VIIS1","EPACode":"780209000","SiteName":"Virgin Islands NP","Parameter":"Visibility","Elevation":51,"EndDate":"2013-08-29T06:00:00.000Z","StartDate":"1990-09-01T06:00:00.000Z","Active":1,"Order":3},"type":"Feature"},{"geometry":{"coordinates":[-155.2579,19.4309],"type":"Point"},"properties":{"DataAccess":"IMPROVE","Link":"http://www.nature.nps.gov/assets/intercept/?addr=http://vista.cira.colostate.edu/improve/data/data.htm","ImNetworkID":"pacn","SiteID":107,"SiteCode":"HAVO1","EPACode":"150019002","SiteName":"Hawaii Volcanoes NP","Parameter":"Visibility","Elevation":1258,"EndDate":"2013-08-29T06:00:00.000Z","StartDate":"1988-03-02T07:00:00.000Z","Active":1,"Order":3},"type":"Feature"},{"geometry":{"coordinates":[-156.2823,20.8086],"type":"Point"},"properties":{"DataAccess":"IMPROVE","Link":"http://www.nature.nps.gov/assets/intercept/?addr=http://vista.cira.colostate.edu/improve/data/data.htm","ImNetworkID":"pacn","SiteID":108,"SiteCode":"HALE1","EPACode":"150099000","SiteName":"Haleakala NP","Parameter":"Visibility","Elevation":1153,"EndDate":"2012-05-30T06:00:00.000Z","StartDate":"1990-12-01T07:00:00.000Z","Active":0,"Order":3},"type":"Feature"},{"geometry":{"coordinates":[-118.2021,35.6987],"type":"Point"},"properties":{"DataAccess":"IMPROVE","Link":"http://www.nature.nps.gov/assets/intercept/?addr=http://vista.cira.colostate.edu/improve/data/data.htm","ImNetworkID":"sien","SiteID":109,"SiteCode":"DOLA1","EPACode":"060299902","SiteName":"Dome Lands Wilderness","Parameter":"Visibility","Elevation":914,"EndDate":"1999-12-29T07:00:00.000Z","StartDate":"1994-06-01T06:00:00.000Z","Active":0,"Order":3},"type":"Feature"},{"geometry":{"coordinates":[-118.1377,35.7278],"type":"Point"},"properties":{"DataAccess":"IMPROVE","Link":"http://www.nature.nps.gov/assets/intercept/?addr=http://vista.cira.colostate.edu/improve/data/data.htm","ImNetworkID":"sien","SiteID":110,"SiteCode":"DOME1","EPACode":"060299001","SiteName":"Dome Lands Wilderness","Parameter":"Visibility","Elevation":927,"EndDate":"2013-08-29T06:00:00.000Z","StartDate":"2000-02-02T07:00:00.000Z","Active":1,"Order":3},"type":"Feature"},{"geometry":{"coordinates":[-119.1546,37.2207],"type":"Point"},"properties":{"DataAccess":"IMPROVE","Link":"http://www.nature.nps.gov/assets/intercept/?addr=http://vista.cira.colostate.edu/improve/data/data.htm","ImNetworkID":"sien","SiteID":111,"SiteCode":"KAIS1","EPACode":"060199000","SiteName":"Kaiser","Parameter":"Visibility","Elevation":2597,"EndDate":"2013-08-29T06:00:00.000Z","StartDate":"2000-01-26T07:00:00.000Z","Active":1,"Order":3},"type":"Feature"},{"geometry":{"coordinates":[-150.3156,62.3153],"type":"Point"},"properties":{"DataAccess":"IMPROVE","Link":"http://www.nature.nps.gov/assets/intercept/?addr=http://vista.cira.colostate.edu/improve/data/data.htm","ImNetworkID":"cakn","SiteID":112,"SiteCode":"TRCR1","EPACode":"021700011","SiteName":"Trapper Creek","Parameter":"Visibility","Elevation":155,"EndDate":"2013-08-29T06:00:00.000Z","StartDate":"2001-09-13T06:00:00.000Z","Active":1,"Order":3},"type":"Feature"},{"geometry":{"coordinates":[-121.0008,45.6644],"type":"Point"},"properties":{"DataAccess":"IMPROVE","Link":"http://www.nature.nps.gov/assets/intercept/?addr=http://vista.cira.colostate.edu/improve/data/data.htm","ImNetworkID":"nccn","SiteID":113,"SiteCode":"CORI1","EPACode":"530390011","SiteName":"Columbia River Gorge","Parameter":"Visibility","Elevation":178,"EndDate":"2013-08-29T06:00:00.000Z","StartDate":"1993-06-02T06:00:00.000Z","Active":1,"Order":3},"type":"Feature"},{"geometry":{"coordinates":[-114.026,45.1588],"type":"Point"},"properties":{"DataAccess":"IMPROVE","Link":"http://www.nature.nps.gov/assets/intercept/?addr=http://vista.cira.colostate.edu/improve/data/data.htm","ImNetworkID":"ucbn","SiteID":114,"SiteCode":"SALM1","EPACode":"160590007","SiteName":"Salmon NF","Parameter":"Visibility","Elevation":2788,"EndDate":"2000-11-05T07:00:00.000Z","StartDate":"1993-12-01T07:00:00.000Z","Active":0,"Order":3},"type":"Feature"},{"geometry":{"coordinates":[-106.2418,41.3662],"type":"Point"},"properties":{"DataAccess":"IMPROVE","Link":"http://www.nature.nps.gov/assets/intercept/?addr=http://vista.cira.colostate.edu/improve/data/data.htm","ImNetworkID":"romn","SiteID":115,"SiteCode":"BRLA1","EPACode":"560019000","SiteName":"Brooklyn Lake","Parameter":"Visibility","Elevation":3196,"EndDate":"2004-01-31T07:00:00.000Z","StartDate":"1993-07-31T06:00:00.000Z","Active":0,"Order":3},"type":"Feature"},{"geometry":{"coordinates":[-111.7081,40.4449],"type":"Point"},"properties":{"DataAccess":"IMPROVE","Link":"http://www.nature.nps.gov/assets/intercept/?addr=http://vista.cira.colostate.edu/improve/data/data.htm","ImNetworkID":"ncpn","SiteID":116,"SiteCode":"LOPE1","EPACode":"490499000","SiteName":"Lone Peak Wilderness","Parameter":"Visibility","Elevation":1768,"EndDate":"2001-08-29T06:00:00.000Z","StartDate":"1993-12-01T07:00:00.000Z","Active":0,"Order":3},"type":"Feature"},{"geometry":{"coordinates":[-114.2161,39.0052],"type":"Point"},"properties":{"DataAccess":"IMPROVE","Link":"http://www.nature.nps.gov/assets/intercept/?addr=http://vista.cira.colostate.edu/improve/data/data.htm","ImNetworkID":"modn","SiteID":117,"SiteCode":"GRBA1","EPACode":"320339000","SiteName":"Great Basin NP","Parameter":"Visibility","Elevation":2065,"EndDate":"2013-08-29T06:00:00.000Z","StartDate":"1992-03-04T07:00:00.000Z","Active":1,"Order":3},"type":"Feature"},{"geometry":{"coordinates":[-112.1288,36.0778],"type":"Point"},"properties":{"DataAccess":"IMPROVE","Link":"http://www.nature.nps.gov/assets/intercept/?addr=http://vista.cira.colostate.edu/improve/data/data.htm","ImNetworkID":"scpn","SiteID":118,"SiteCode":"INGA1","EPACode":"040058100","SiteName":"Indian Gardens","Parameter":"Visibility","Elevation":1166,"EndDate":"2013-05-13T06:00:00.000Z","StartDate":"1989-09-02T06:00:00.000Z","Active":0,"Order":3},"type":"Feature"},{"geometry":{"coordinates":[-116.8478,36.5089],"type":"Point"},"properties":{"DataAccess":"IMPROVE","Link":"http://www.nature.nps.gov/assets/intercept/?addr=http://vista.cira.colostate.edu/improve/data/data.htm","ImNetworkID":"modn","SiteID":119,"SiteCode":"DEVA1","EPACode":"060270101","SiteName":"Death Valley NP","Parameter":"Visibility","Elevation":130,"EndDate":"2013-04-28T06:00:00.000Z","StartDate":"1993-09-04T06:00:00.000Z","Active":0,"Order":3},"type":"Feature"},{"geometry":{"coordinates":[-77.0344,38.8762],"type":"Point"},"properties":{"DataAccess":"IMPROVE","Link":"http://www.nature.nps.gov/assets/intercept/?addr=http://vista.cira.colostate.edu/improve/data/data.htm","ImNetworkID":"ncrn","SiteID":120,"SiteCode":"WASH1","EPACode":"110010042","SiteName":"Washington D.C.","Parameter":"Visibility","Elevation":15,"EndDate":"2013-08-29T06:00:00.000Z","StartDate":"1988-03-02T07:00:00.000Z","Active":1,"Order":3},"type":"Feature"},{"geometry":{"coordinates":[-111.2178,32.2486],"type":"Point"},"properties":{"DataAccess":"IMPROVE","Link":"http://www.nature.nps.gov/assets/intercept/?addr=http://vista.cira.colostate.edu/improve/data/data.htm","ImNetworkID":"sodn","SiteID":121,"SiteCode":"SAWE1","EPACode":"040199000","SiteName":"Saguaro West","Parameter":"Visibility","Elevation":714,"EndDate":"2013-08-29T06:00:00.000Z","StartDate":"2001-10-31T07:00:00.000Z","Active":1,"Order":3},"type":"Feature"},{"geometry":{"coordinates":[-111.2858,33.2939],"type":"Point"},"properties":{"DataAccess":"IMPROVE","Link":"http://www.nature.nps.gov/assets/intercept/?addr=http://vista.cira.colostate.edu/improve/data/data.htm","ImNetworkID":"sodn","SiteID":122,"SiteCode":"QUVA1","EPACode":"040218001","SiteName":"Queen Valley","Parameter":"Visibility","Elevation":661,"EndDate":"2013-08-29T06:00:00.000Z","StartDate":"2001-04-19T06:00:00.000Z","Active":1,"Order":3},"type":"Feature"},{"geometry":{"coordinates":[-112.8016,31.9506],"type":"Point"},"properties":{"DataAccess":"IMPROVE","Link":"http://www.nature.nps.gov/assets/intercept/?addr=http://vista.cira.colostate.edu/improve/data/data.htm","ImNetworkID":"sodn","SiteID":123,"SiteCode":"ORPI1","EPACode":"040190005","SiteName":"Organ Pipe","Parameter":"Visibility","Elevation":504,"EndDate":"2013-08-29T06:00:00.000Z","StartDate":"2002-12-01T07:00:00.000Z","Active":1,"Order":3},"type":"Feature"},{"geometry":{"coordinates":[-112.9628,34.4289],"type":"Point"},"properties":{"DataAccess":"IMPROVE","Link":"http://www.nature.nps.gov/assets/intercept/?addr=http://vista.cira.colostate.edu/improve/data/data.htm","ImNetworkID":"sodn","SiteID":124,"SiteCode":"HILL1","EPACode":"040250005","SiteName":"Hillside","Parameter":"Visibility","Elevation":1510,"EndDate":"2005-05-31T06:00:00.000Z","StartDate":"2001-04-19T06:00:00.000Z","Active":0,"Order":3},"type":"Feature"},{"geometry":{"coordinates":[-114.0684,36.0193],"type":"Point"},"properties":{"DataAccess":"IMPROVE","Link":"http://www.nature.nps.gov/assets/intercept/?addr=http://vista.cira.colostate.edu/improve/data/data.htm","ImNetworkID":"modn","SiteID":125,"SiteCode":"MEAD1","EPACode":"040159000","SiteName":"Meadview","Parameter":"Visibility","Elevation":902,"EndDate":"2013-08-29T06:00:00.000Z","StartDate":"1991-09-04T06:00:00.000Z","Active":1,"Order":3},"type":"Feature"},{"geometry":{"coordinates":[-68.0333,46.6964],"type":"Point"},"properties":{"DataAccess":"IMPROVE","Link":"http://www.nature.nps.gov/assets/intercept/?addr=http://vista.cira.colostate.edu/improve/data/data.htm","ImNetworkID":"netn","SiteID":126,"SiteCode":"PRIS1","EPACode":"230031020","SiteName":"Presque Isle","Parameter":"Visibility","Elevation":165,"EndDate":"2013-08-29T06:00:00.000Z","StartDate":"2001-03-08T07:00:00.000Z","Active":1,"Order":3},"type":"Feature"},{"geometry":{"coordinates":[-68.6457,44.9334],"type":"Point"},"properties":{"DataAccess":"IMPROVE","Link":"http://www.nature.nps.gov/assets/intercept/?addr=http://vista.cira.colostate.edu/improve/data/data.htm","ImNetworkID":"netn","SiteID":127,"SiteCode":"OLTO1","EPACode":"230194003","SiteName":"Old Town","Parameter":"Visibility","Elevation":51,"EndDate":"2006-05-29T06:00:00.000Z","StartDate":"2001-06-27T06:00:00.000Z","Active":0,"Order":3},"type":"Feature"},{"geometry":{"coordinates":[-72.8688,44.5284],"type":"Point"},"properties":{"DataAccess":"IMPROVE","Link":"http://www.nature.nps.gov/assets/intercept/?addr=http://vista.cira.colostate.edu/improve/data/data.htm","ImNetworkID":"netn","SiteID":128,"SiteCode":"PMRF1","EPACode":"500070007","SiteName":"Proctor Maple R. F.","Parameter":"Visibility","Elevation":401,"EndDate":"2013-08-29T06:00:00.000Z","StartDate":"1993-12-01T07:00:00.000Z","Active":1,"Order":3},"type":"Feature"},{"geometry":{"coordinates":[-70.0644,43.8325],"type":"Point"},"properties":{"DataAccess":"IMPROVE","Link":"http://www.nature.nps.gov/assets/intercept/?addr=http://vista.cira.colostate.edu/improve/data/data.htm","ImNetworkID":"netn","SiteID":129,"SiteCode":"CABA1","EPACode":"230059002","SiteName":"Casco Bay","Parameter":"Visibility","Elevation":26,"EndDate":"2013-08-29T06:00:00.000Z","StartDate":"2001-03-14T07:00:00.000Z","Active":1,"Order":3},"type":"Feature"},{"geometry":{"coordinates":[-70.7292,44.1074],"type":"Point"},"properties":{"DataAccess":"IMPROVE","Link":"http://www.nature.nps.gov/assets/intercept/?addr=http://vista.cira.colostate.edu/improve/data/data.htm","ImNetworkID":"netn","SiteID":130,"SiteCode":"BRMA1","EPACode":"230050103","SiteName":"Bridgton","Parameter":"Visibility","Elevation":233,"EndDate":"2013-08-29T06:00:00.000Z","StartDate":"2001-03-14T07:00:00.000Z","Active":1,"Order":3},"type":"Feature"},{"geometry":{"coordinates":[-70.0242,41.9758],"type":"Point"},"properties":{"DataAccess":"IMPROVE","Link":"http://www.nature.nps.gov/assets/intercept/?addr=http://vista.cira.colostate.edu/improve/data/data.htm","ImNetworkID":"ncbn","SiteID":131,"SiteCode":"CACO1","EPACode":"250010002","SiteName":"Cape Cod","Parameter":"Visibility","Elevation":49,"EndDate":"2013-08-29T06:00:00.000Z","StartDate":"2001-04-04T06:00:00.000Z","Active":1,"Order":3},"type":"Feature"},{"geometry":{"coordinates":[-72.3346,42.2985],"type":"Point"},"properties":{"DataAccess":"IMPROVE","Link":"http://www.nature.nps.gov/assets/intercept/?addr=http://vista.cira.colostate.edu/improve/data/data.htm","ImNetworkID":"netn","SiteID":132,"SiteCode":"QURE1","EPACode":"250154002","SiteName":"Quabbin Summit","Parameter":"Visibility","Elevation":317,"EndDate":"2013-08-29T06:00:00.000Z","StartDate":"2001-04-04T06:00:00.000Z","Active":1,"Order":3},"type":"Feature"},{"geometry":{"coordinates":[-70.7846,41.3309],"type":"Point"},"properties":{"DataAccess":"IMPROVE","Link":"http://www.nature.nps.gov/assets/intercept/?addr=http://vista.cira.colostate.edu/improve/data/data.htm","ImNetworkID":"ncbn","SiteID":133,"SiteCode":"MAVI1","EPACode":"250070001","SiteName":"Martha's Vineyard","Parameter":"Visibility","Elevation":2,"EndDate":"2013-08-29T06:00:00.000Z","StartDate":"2002-12-01T07:00:00.000Z","Active":1,"Order":3},"type":"Feature"},{"geometry":{"coordinates":[-73.2973,41.8214],"type":"Point"},"properties":{"DataAccess":"IMPROVE","Link":"http://www.nature.nps.gov/assets/intercept/?addr=http://vista.cira.colostate.edu/improve/data/data.htm","ImNetworkID":"netn","SiteID":134,"SiteCode":"MOMO1","EPACode":"090050005","SiteName":"Mohawk Mt.","Parameter":"Visibility","Elevation":521,"EndDate":"2013-08-29T06:00:00.000Z","StartDate":"2001-09-13T06:00:00.000Z","Active":1,"Order":3},"type":"Feature"},{"geometry":{"coordinates":[-117.8609,47.9045],"type":"Point"},"properties":{"DataAccess":"IMPROVE","Link":"http://www.nature.nps.gov/assets/intercept/?addr=http://vista.cira.colostate.edu/improve/data/data.htm","ImNetworkID":"ucbn","SiteID":135,"SiteCode":"SPOK1","EPACode":"530630051","SiteName":"Spokane Res.","Parameter":"Visibility","Elevation":552,"EndDate":"2005-06-30T06:00:00.000Z","StartDate":"2001-07-12T06:00:00.000Z","Active":0,"Order":3},"type":"Feature"},{"geometry":{"coordinates":[-76.6534,42.4009],"type":"Point"},"properties":{"DataAccess":"IMPROVE","Link":"http://www.nature.nps.gov/assets/intercept/?addr=http://vista.cira.colostate.edu/improve/data/data.htm","ImNetworkID":"ermn","SiteID":136,"SiteCode":"COHI1","EPACode":"361099000","SiteName":"Connecticut Hill","Parameter":"Visibility","Elevation":519,"EndDate":"2006-06-25T06:00:00.000Z","StartDate":"2001-04-04T06:00:00.000Z","Active":0,"Order":3},"type":"Feature"},{"geometry":{"coordinates":[-80.1453,41.4269],"type":"Point"},"properties":{"DataAccess":"IMPROVE","Link":"http://www.nature.nps.gov/assets/intercept/?addr=http://vista.cira.colostate.edu/improve/data/data.htm","ImNetworkID":"ermn","SiteID":137,"SiteCode":"MKGO1","EPACode":"420859000","SiteName":"M.K. Goddard","Parameter":"Visibility","Elevation":379,"EndDate":"2010-12-31T07:00:00.000Z","StartDate":"2001-04-04T06:00:00.000Z","Active":0,"Order":3},"type":"Feature"},{"geometry":{"coordinates":[-77.3079,39.9232],"type":"Point"},"properties":{"DataAccess":"IMPROVE","Link":"http://www.nature.nps.gov/assets/intercept/?addr=http://vista.cira.colostate.edu/improve/data/data.htm","ImNetworkID":"midn","SiteID":138,"SiteCode":"AREN1","EPACode":"420019000","SiteName":"Arendtsville","Parameter":"Visibility","Elevation":267,"EndDate":"2010-12-31T07:00:00.000Z","StartDate":"2001-04-04T06:00:00.000Z","Active":0,"Order":3},"type":"Feature"},{"geometry":{"coordinates":[-81.3378,39.9428],"type":"Point"},"properties":{"DataAccess":"IMPROVE","Link":"http://www.nature.nps.gov/assets/intercept/?addr=http://vista.cira.colostate.edu/improve/data/data.htm","ImNetworkID":"htln","SiteID":139,"SiteCode":"QUCI1","EPACode":"391219000","SiteName":"Quaker City","Parameter":"Visibility","Elevation":366,"EndDate":"2013-08-29T06:00:00.000Z","StartDate":"2001-04-04T06:00:00.000Z","Active":1,"Order":3},"type":"Feature"},{"geometry":{"coordinates":[-88.3733,40.052],"type":"Point"},"properties":{"DataAccess":"IMPROVE","Link":"http://www.nature.nps.gov/assets/intercept/?addr=http://vista.cira.colostate.edu/improve/data/data.htm","ImNetworkID":"htln","SiteID":140,"SiteCode":"BOND1","EPACode":"170191001","SiteName":"Bondville","Parameter":"Visibility","Elevation":263,"EndDate":"2013-08-29T06:00:00.000Z","StartDate":"2001-03-08T07:00:00.000Z","Active":1,"Order":3},"type":"Feature"},{"geometry":{"coordinates":[-86.2604,38.5346],"type":"Point"},"properties":{"DataAccess":"IMPROVE","Link":"http://www.nature.nps.gov/assets/intercept/?addr=http://vista.cira.colostate.edu/improve/data/data.htm","ImNetworkID":"htln","SiteID":141,"SiteCode":"LIVO1","EPACode":"181759000","SiteName":"Livonia","Parameter":"Visibility","Elevation":281,"EndDate":"2010-12-31T07:00:00.000Z","StartDate":"2001-03-08T07:00:00.000Z","Active":0,"Order":3},"type":"Feature"},{"geometry":{"coordinates":[-87.8501,36.7842],"type":"Point"},"properties":{"DataAccess":"IMPROVE","Link":"http://www.nature.nps.gov/assets/intercept/?addr=http://vista.cira.colostate.edu/improve/data/data.htm","ImNetworkID":"cupn","SiteID":142,"SiteCode":"CADI1","EPACode":"212219000","SiteName":"Cadiz","Parameter":"Visibility","Elevation":191,"EndDate":"2010-12-31T07:00:00.000Z","StartDate":"2001-03-08T07:00:00.000Z","Active":0,"Order":3},"type":"Feature"},{"geometry":{"coordinates":[-92.435,32.0574],"type":"Point"},"properties":{"DataAccess":"IMPROVE","Link":"http://www.nature.nps.gov/assets/intercept/?addr=http://vista.cira.colostate.edu/improve/data/data.htm","ImNetworkID":"guln","SiteID":143,"SiteCode":"SIKE1","EPACode":"221279000","SiteName":"Sikes","Parameter":"Visibility","Elevation":45,"EndDate":"2010-12-31T07:00:00.000Z","StartDate":"2001-03-02T07:00:00.000Z","Active":0,"Order":3},"type":"Feature"},{"geometry":{"coordinates":[-77.2099,42.0912],"type":"Point"},"properties":{"DataAccess":"IMPROVE","Link":"http://www.nature.nps.gov/assets/intercept/?addr=http://vista.cira.colostate.edu/improve/data/data.htm","ImNetworkID":"ermn","SiteID":144,"SiteCode":"ADPI1","EPACode":"361019000","SiteName":"Addison Pinnacle","Parameter":"Visibility","Elevation":512,"EndDate":"2010-06-28T06:00:00.000Z","StartDate":"2001-04-04T06:00:00.000Z","Active":0,"Order":3},"type":"Feature"},{"geometry":{"coordinates":[-122.2103,45.5693],"type":"Point"},"properties":{"DataAccess":"IMPROVE","Link":"http://www.nature.nps.gov/assets/intercept/?addr=http://vista.cira.colostate.edu/improve/data/data.htm","ImNetworkID":"nccn","SiteID":145,"SiteCode":"COGO1","EPACode":"530390010","SiteName":"Columbia Gorge #1","Parameter":"Visibility","Elevation":230,"EndDate":"2011-10-30T06:00:00.000Z","StartDate":"1996-09-18T06:00:00.000Z","Active":0,"Order":3},"type":"Feature"},{"geometry":{"coordinates":[-91.4052,43.9373],"type":"Point"},"properties":{"DataAccess":"IMPROVE","Link":"http://www.nature.nps.gov/assets/intercept/?addr=http://vista.cira.colostate.edu/improve/data/data.htm","ImNetworkID":"glkn","SiteID":146,"SiteCode":"GRRI1","EPACode":"271699000","SiteName":"Great River Bluffs","Parameter":"Visibility","Elevation":370,"EndDate":"2013-08-29T06:00:00.000Z","StartDate":"2002-06-01T06:00:00.000Z","Active":1,"Order":3},"type":"Feature"},{"geometry":{"coordinates":[-96.1913,43.7158],"type":"Point"},"properties":{"DataAccess":"IMPROVE","Link":"http://www.nature.nps.gov/assets/intercept/?addr=http://vista.cira.colostate.edu/improve/data/data.htm","ImNetworkID":"htln","SiteID":147,"SiteCode":"BLMO1","EPACode":"271339000","SiteName":"Blue Mounds","Parameter":"Visibility","Elevation":473,"EndDate":"2013-08-29T06:00:00.000Z","StartDate":"2002-06-01T06:00:00.000Z","Active":1,"Order":3},"type":"Feature"},{"geometry":{"coordinates":[-91.9883,40.6883],"type":"Point"},"properties":{"DataAccess":"IMPROVE","Link":"http://www.nature.nps.gov/assets/intercept/?addr=http://vista.cira.colostate.edu/improve/data/data.htm","ImNetworkID":"htln","SiteID":148,"SiteCode":"LASU1","EPACode":"191770006","SiteName":"Lake Sugema","Parameter":"Visibility","Elevation":210,"EndDate":"2004-11-29T07:00:00.000Z","StartDate":"2002-05-08T06:00:00.000Z","Active":0,"Order":3},"type":"Feature"},{"geometry":{"coordinates":[-95.045,40.969],"type":"Point"},"properties":{"DataAccess":"IMPROVE","Link":"http://www.nature.nps.gov/assets/intercept/?addr=http://vista.cira.colostate.edu/improve/data/data.htm","ImNetworkID":"htln","SiteID":149,"SiteCode":"VILA1","EPACode":"191370002","SiteName":"Viking Lake","Parameter":"Visibility","Elevation":371,"EndDate":"2013-08-29T06:00:00.000Z","StartDate":"2002-05-08T06:00:00.000Z","Active":1,"Order":3},"type":"Feature"},{"geometry":{"coordinates":[-100.3387,41.8888],"type":"Point"},"properties":{"DataAccess":"IMPROVE","Link":"http://www.nature.nps.gov/assets/intercept/?addr=http://vista.cira.colostate.edu/improve/data/data.htm","ImNetworkID":"ngpn","SiteID":151,"SiteCode":"NEBR1","EPACode":"311719000","SiteName":"Nebraska NF","Parameter":"Visibility","Elevation":883,"EndDate":"2013-08-29T06:00:00.000Z","StartDate":"2002-06-01T06:00:00.000Z","Active":1,"Order":3},"type":"Feature"},{"geometry":{"coordinates":[-102.4336,41.7627],"type":"Point"},"properties":{"DataAccess":"IMPROVE","Link":"http://www.nature.nps.gov/assets/intercept/?addr=http://vista.cira.colostate.edu/improve/data/data.htm","ImNetworkID":"ngpn","SiteID":153,"SiteCode":"CRES1","EPACode":"310699000","SiteName":"Crescent Lake","Parameter":"Visibility","Elevation":1207,"EndDate":"2013-08-29T06:00:00.000Z","StartDate":"2002-06-01T06:00:00.000Z","Active":1,"Order":3},"type":"Feature"},{"geometry":{"coordinates":[-95.5682,39.9791],"type":"Point"},"properties":{"DataAccess":"IMPROVE","Link":"http://www.nature.nps.gov/assets/intercept/?addr=http://vista.cira.colostate.edu/improve/data/data.htm","ImNetworkID":"htln","SiteID":154,"SiteCode":"SAFO1","EPACode":"200139000","SiteName":"Sac and Fox","Parameter":"Visibility","Elevation":293,"EndDate":"2011-06-29T06:00:00.000Z","StartDate":"2002-06-01T06:00:00.000Z","Active":0,"Order":3},"type":"Feature"},{"geometry":{"coordinates":[-96.5602,38.4341],"type":"Point"},"properties":{"DataAccess":"IMPROVE","Link":"http://www.nature.nps.gov/assets/intercept/?addr=http://vista.cira.colostate.edu/improve/data/data.htm","ImNetworkID":"htln","SiteID":155,"SiteCode":"TALL1","EPACode":"200170001","SiteName":"Tallgrass","Parameter":"Visibility","Elevation":390,"EndDate":"2013-08-29T06:00:00.000Z","StartDate":"2002-09-02T06:00:00.000Z","Active":1,"Order":3},"type":"Feature"},{"geometry":{"coordinates":[-99.7634,38.7701],"type":"Point"},"properties":{"DataAccess":"IMPROVE","Link":"http://www.nature.nps.gov/assets/intercept/?addr=http://vista.cira.colostate.edu/improve/data/data.htm","ImNetworkID":"sopn","SiteID":156,"SiteCode":"CEBL1","EPACode":"201950001","SiteName":"Cedar Bluff","Parameter":"Visibility","Elevation":665,"EndDate":"2013-08-29T06:00:00.000Z","StartDate":"2002-06-01T06:00:00.000Z","Active":1,"Order":3},"type":"Feature"},{"geometry":{"coordinates":[-94.0348,37.7009],"type":"Point"},"properties":{"DataAccess":"IMPROVE","Link":"http://www.nature.nps.gov/assets/intercept/?addr=http://vista.cira.colostate.edu/improve/data/data.htm","ImNetworkID":"htln","SiteID":157,"SiteCode":"ELDO1","EPACode":"290390001","SiteName":"El Dorado Springs","Parameter":"Visibility","Elevation":297,"EndDate":"2013-08-29T06:00:00.000Z","StartDate":"2002-03-03T07:00:00.000Z","Active":1,"Order":3},"type":"Feature"},{"geometry":{"coordinates":[-97.0313,36.9562],"type":"Point"},"properties":{"DataAccess":"IMPROVE","Link":"http://www.nature.nps.gov/assets/intercept/?addr=http://vista.cira.colostate.edu/improve/data/data.htm","ImNetworkID":"sopn","SiteID":158,"SiteCode":"CHER1","EPACode":"400719010","SiteName":"Cherokee Nation","Parameter":"Visibility","Elevation":342,"EndDate":"2010-04-20T06:00:00.000Z","StartDate":"2002-09-02T06:00:00.000Z","Active":0,"Order":3},"type":"Feature"},{"geometry":{"coordinates":[-99.9354,36.0853],"type":"Point"},"properties":{"DataAccess":"IMPROVE","Link":"http://www.nature.nps.gov/assets/intercept/?addr=http://vista.cira.colostate.edu/improve/data/data.htm","ImNetworkID":"sopn","SiteID":159,"SiteCode":"ELLI1","EPACode":"400450890","SiteName":"Ellis","Parameter":"Visibility","Elevation":697,"EndDate":"2013-08-29T06:00:00.000Z","StartDate":"2002-03-03T07:00:00.000Z","Active":1,"Order":3},"type":"Feature"},{"geometry":{"coordinates":[-105.1022,48.308],"type":"Point"},"properties":{"DataAccess":"IMPROVE","Link":"http://www.nature.nps.gov/assets/intercept/?addr=http://vista.cira.colostate.edu/improve/data/data.htm","ImNetworkID":"ngpn","SiteID":160,"SiteCode":"FOPE1","EPACode":"300859000","SiteName":"Fort Peck","Parameter":"Visibility","Elevation":638,"EndDate":"2013-08-29T06:00:00.000Z","StartDate":"2002-06-01T06:00:00.000Z","Active":1,"Order":3},"type":"Feature"},{"geometry":{"coordinates":[-106.5574,45.6495],"type":"Point"},"properties":{"DataAccess":"IMPROVE","Link":"http://www.nature.nps.gov/assets/intercept/?addr=http://vista.cira.colostate.edu/improve/data/data.htm","ImNetworkID":"romn","SiteID":161,"SiteCode":"NOCH1","EPACode":"300870762","SiteName":"Northern Cheyenne","Parameter":"Visibility","Elevation":1283,"EndDate":"2013-08-29T06:00:00.000Z","StartDate":"2002-06-01T06:00:00.000Z","Active":1,"Order":3},"type":"Feature"},{"geometry":{"coordinates":[-114.269,47.7734],"type":"Point"},"properties":{"DataAccess":"IMPROVE","Link":"http://www.nature.nps.gov/assets/intercept/?addr=http://vista.cira.colostate.edu/improve/data/data.htm","ImNetworkID":"romn","SiteID":162,"SiteCode":"FLAT1","EPACode":"300479000","SiteName":"Flathead","Parameter":"Visibility","Elevation":1580,"EndDate":"2013-08-29T06:00:00.000Z","StartDate":"2002-06-01T06:00:00.000Z","Active":1,"Order":3},"type":"Feature"},{"geometry":{"coordinates":[-106.9565,44.3335],"type":"Point"},"properties":{"DataAccess":"IMPROVE","Link":"http://www.nature.nps.gov/assets/intercept/?addr=http://vista.cira.colostate.edu/improve/data/data.htm","ImNetworkID":"romn","SiteID":163,"SiteCode":"CLPE1","EPACode":"560199000","SiteName":"Cloud Peak","Parameter":"Visibility","Elevation":2470,"EndDate":"2013-08-29T06:00:00.000Z","StartDate":"2002-06-01T06:00:00.000Z","Active":1,"Order":3},"type":"Feature"},{"geometry":{"coordinates":[-105.2874,44.6634],"type":"Point"},"properties":{"DataAccess":"IMPROVE","Link":"http://www.nature.nps.gov/assets/intercept/?addr=http://vista.cira.colostate.edu/improve/data/data.htm","ImNetworkID":"ngpn","SiteID":164,"SiteCode":"THBA1","EPACode":"560050123","SiteName":"Thunder Basin","Parameter":"Visibility","Elevation":1195,"EndDate":"2013-08-29T06:00:00.000Z","StartDate":"2002-06-01T06:00:00.000Z","Active":1,"Order":3},"type":"Feature"},{"geometry":{"coordinates":[-122.3119,47.5696],"type":"Point"},"properties":{"DataAccess":"IMPROVE","Link":"http://www.nature.nps.gov/assets/intercept/?addr=http://vista.cira.colostate.edu/improve/data/data.htm","ImNetworkID":"nccn","SiteID":165,"SiteCode":"PUSO1","EPACode":"530330080","SiteName":"Puget Sound","Parameter":"Visibility","Elevation":97,"EndDate":"2013-08-29T06:00:00.000Z","StartDate":"1996-03-02T07:00:00.000Z","Active":1,"Order":3},"type":"Feature"},{"geometry":{"coordinates":[-112.0958,33.5038],"type":"Point"},"properties":{"DataAccess":"IMPROVE","Link":"http://www.nature.nps.gov/assets/intercept/?addr=http://vista.cira.colostate.edu/improve/data/data.htm","ImNetworkID":"sodn","SiteID":166,"SiteCode":"PHOE1","EPACode":"040139997","SiteName":"Phoenix","Parameter":"Visibility","Elevation":342,"EndDate":"2013-08-29T06:00:00.000Z","StartDate":"2001-04-19T06:00:00.000Z","Active":1,"Order":3},"type":"Feature"},{"geometry":{"coordinates":[-109.5833,38.7833],"type":"Point"},"properties":{"DataAccess":"IMPROVE","Link":"http://www.nature.nps.gov/assets/intercept/?addr=http://vista.cira.colostate.edu/improve/data/data.htm","ImNetworkID":"ncpn","SiteID":167,"SiteCode":"ARCH1","EPACode":"490190101","SiteName":"Arches NP","Parameter":"Visibility","Elevation":1722,"EndDate":"1999-12-29T07:00:00.000Z","StartDate":"1988-03-02T07:00:00.000Z","Active":0,"Order":3},"type":"Feature"},{"geometry":{"coordinates":[-112.1539,36.0658],"type":"Point"},"properties":{"DataAccess":"IMPROVE","Link":"http://www.nature.nps.gov/assets/intercept/?addr=http://vista.cira.colostate.edu/improve/data/data.htm","ImNetworkID":"scpn","SiteID":171,"SiteCode":"GRCA1","EPACode":"040052002","SiteName":"Hopi Point #1","Parameter":"Visibility","Elevation":2164,"EndDate":"1999-12-29T07:00:00.000Z","StartDate":"1988-03-02T07:00:00.000Z","Active":0,"Order":3},"type":"Feature"},{"geometry":{"coordinates":[-89.15,47.9167],"type":"Point"},"properties":{"DataAccess":"IMPROVE","Link":"http://www.nature.nps.gov/assets/intercept/?addr=http://vista.cira.colostate.edu/improve/data/data.htm","ImNetworkID":"glkn","SiteID":173,"SiteCode":"ISRO1","EPACode":"260839001","SiteName":"Isle Royale NP","Parameter":"Visibility","Elevation":213,"EndDate":"1999-12-29T07:00:00.000Z","StartDate":"1988-06-01T06:00:00.000Z","Active":0,"Order":3},"type":"Feature"},{"geometry":{"coordinates":[-79.4833,37.6167],"type":"Point"},"properties":{"DataAccess":"IMPROVE","Link":"http://www.nature.nps.gov/assets/intercept/?addr=http://vista.cira.colostate.edu/improve/data/data.htm","ImNetworkID":"aphn","SiteID":174,"SiteCode":"JEFF1","EPACode":"511639001","SiteName":"Jefferson NF","Parameter":"Visibility","Elevation":219,"EndDate":"2000-02-26T07:00:00.000Z","StartDate":"1994-09-03T06:00:00.000Z","Active":0,"Order":3},"type":"Feature"},{"geometry":{"coordinates":[-116.3889,34.0695],"type":"Point"},"properties":{"DataAccess":"IMPROVE","Link":"http://www.nature.nps.gov/assets/intercept/?addr=http://vista.cira.colostate.edu/improve/data/data.htm","ImNetworkID":"modn","SiteID":175,"SiteCode":"JOTR1","EPACode":"060719002","SiteName":"Joshua Tree NP","Parameter":"Visibility","Elevation":1228,"EndDate":"1999-12-29T07:00:00.000Z","StartDate":"1991-09-04T06:00:00.000Z","Active":0,"Order":3},"type":"Feature"},{"geometry":{"coordinates":[-122.5586,48.9533],"type":"Point"},"properties":{"DataAccess":"IMPROVE","Link":"http://www.nature.nps.gov/assets/intercept/?addr=http://vista.cira.colostate.edu/improve/data/data.htm","ImNetworkID":"nccn","SiteID":176,"SiteCode":"LYND1","EPACode":"530730020","SiteName":"Lynden","Parameter":"Visibility","Elevation":28,"EndDate":"1999-12-29T07:00:00.000Z","StartDate":"1996-10-16T06:00:00.000Z","Active":0,"Order":3},"type":"Feature"},{"geometry":{"coordinates":[-155.5767,19.5362],"type":"Point"},"properties":{"DataAccess":"IMPROVE","Link":"http://www.nature.nps.gov/assets/intercept/?addr=http://vista.cira.colostate.edu/improve/data/data.htm","ImNetworkID":"pacn","SiteID":178,"SiteCode":"MALO1","EPACode":"150019000","SiteName":"Mauna Loa Observatory #1","Parameter":"Visibility","Elevation":3439,"EndDate":"2004-08-28T06:00:00.000Z","StartDate":"1992-12-02T07:00:00.000Z","Active":0,"Order":3},"type":"Feature"},{"geometry":{"coordinates":[-155.5767,19.5362],"type":"Point"},"properties":{"DataAccess":"IMPROVE","Link":"http://www.nature.nps.gov/assets/intercept/?addr=http://vista.cira.colostate.edu/improve/data/data.htm","ImNetworkID":"pacn","SiteID":179,"SiteCode":"MALO2","EPACode":"150019001","SiteName":"Mauna Loa Observatory #2","Parameter":"Visibility","Elevation":3439,"EndDate":"2004-08-28T06:00:00.000Z","StartDate":"1992-12-02T07:00:00.000Z","Active":0,"Order":3},"type":"Feature"},{"geometry":{"coordinates":[-155.578,19.5389],"type":"Point"},"properties":{"DataAccess":"IMPROVE","Link":"http://www.nature.nps.gov/assets/intercept/?addr=http://vista.cira.colostate.edu/improve/data/data.htm","ImNetworkID":"pacn","SiteID":180,"SiteCode":"MALO3","EPACode":"150019003","SiteName":"Mauna Loa Observatory #3","Parameter":"Visibility","Elevation":3400,"EndDate":"2000-02-26T07:00:00.000Z","StartDate":"1996-03-06T07:00:00.000Z","Active":0,"Order":3},"type":"Feature"},{"geometry":{"coordinates":[-155.578,19.5389],"type":"Point"},"properties":{"DataAccess":"IMPROVE","Link":"http://www.nature.nps.gov/assets/intercept/?addr=http://vista.cira.colostate.edu/improve/data/data.htm","ImNetworkID":"pacn","SiteID":181,"SiteCode":"MALO4","EPACode":"150019004","SiteName":"Mauna Loa Observatory #4","Parameter":"Visibility","Elevation":3400,"EndDate":"2000-02-26T07:00:00.000Z","StartDate":"1996-03-02T07:00:00.000Z","Active":0,"Order":3},"type":"Feature"},{"geometry":{"coordinates":[-105.5638,40.3624],"type":"Point"},"properties":{"DataAccess":"IMPROVE","Link":"http://www.nature.nps.gov/assets/intercept/?addr=http://vista.cira.colostate.edu/improve/data/data.htm","ImNetworkID":"romn","SiteID":182,"SiteCode":"RMHQ1","EPACode":"080699000","SiteName":"Rocky Mountain NP HQ","Parameter":"Visibility","Elevation":2408,"EndDate":"1999-12-29T07:00:00.000Z","StartDate":"1988-03-02T07:00:00.000Z","Active":0,"Order":3},"type":"Feature"},{"geometry":{"coordinates":[-106.4844,32.6869],"type":"Point"},"properties":{"DataAccess":"IMPROVE","Link":"http://www.nature.nps.gov/assets/intercept/?addr=http://vista.cira.colostate.edu/improve/data/data.htm","ImNetworkID":"chdn","SiteID":184,"SiteCode":"SAAN1","EPACode":"350139000","SiteName":"San Andres","Parameter":"Visibility","Elevation":1326,"EndDate":"2000-02-26T07:00:00.000Z","StartDate":"1997-07-30T06:00:00.000Z","Active":0,"Order":3},"type":"Feature"},{"geometry":{"coordinates":[-113.0333,43.65],"type":"Point"},"properties":{"DataAccess":"IMPROVE","Link":"http://www.nature.nps.gov/assets/intercept/?addr=http://vista.cira.colostate.edu/improve/data/data.htm","ImNetworkID":"ucbn","SiteID":185,"SiteCode":"SCOV1","EPACode":"160230003","SiteName":"Scoville","Parameter":"Visibility","Elevation":1500,"EndDate":"2000-02-26T07:00:00.000Z","StartDate":"1992-03-04T07:00:00.000Z","Active":0,"Order":3},"type":"Feature"},{"geometry":{"coordinates":[-119.9667,38.9333],"type":"Point"},"properties":{"DataAccess":"IMPROVE","Link":"http://www.nature.nps.gov/assets/intercept/?addr=http://vista.cira.colostate.edu/improve/data/data.htm","ImNetworkID":"sien","SiteID":186,"SiteCode":"SOLA1","EPACode":"060170008","SiteName":"South Lake Tahoe","Parameter":"Visibility","Elevation":1900,"EndDate":"1999-12-29T07:00:00.000Z","StartDate":"1989-03-01T07:00:00.000Z","Active":0,"Order":3},"type":"Feature"},{"geometry":{"coordinates":[-106.74,40.445],"type":"Point"},"properties":{"DataAccess":"IMPROVE","Link":"http://www.nature.nps.gov/assets/intercept/?addr=http://vista.cira.colostate.edu/improve/data/data.htm","ImNetworkID":"romn","SiteID":187,"SiteCode":"STPE1","EPACode":"081079000","SiteName":"Storm Peak","Parameter":"Visibility","Elevation":3220,"EndDate":"1999-12-29T07:00:00.000Z","StartDate":"1993-12-01T07:00:00.000Z","Active":0,"Order":3},"type":"Feature"},{"geometry":{"coordinates":[-92.8286,48.4126],"type":"Point"},"properties":{"DataAccess":"IMPROVE","Link":"http://www.nature.nps.gov/assets/intercept/?addr=http://vista.cira.colostate.edu/improve/data/data.htm","ImNetworkID":"glkn","SiteID":188,"SiteCode":"VOYA2","EPACode":"271379000","SiteName":"Voyageurs NP #2","Parameter":"Visibility","Elevation":429,"EndDate":"2013-08-29T06:00:00.000Z","StartDate":"1988-03-02T07:00:00.000Z","Active":1,"Order":3},"type":"Feature"},{"geometry":{"coordinates":[-110.4002,44.5653],"type":"Point"},"properties":{"DataAccess":"IMPROVE","Link":"http://www.nature.nps.gov/assets/intercept/?addr=http://vista.cira.colostate.edu/improve/data/data.htm","ImNetworkID":"gryn","SiteID":189,"SiteCode":"YELL2","EPACode":"560399000","SiteName":"Yellowstone NP 2","Parameter":"Visibility","Elevation":2425,"EndDate":"2013-08-29T06:00:00.000Z","StartDate":"1988-03-02T07:00:00.000Z","Active":1,"Order":3},"type":"Feature"},{"geometry":{"coordinates":[-72.0111,41.8408],"type":"Point"},"properties":{"DataAccess":"CASTNet Ozone","ImNetworkID":"netn","SiteID":207,"SiteCode":"ABT147","EPACode":"090159991","SiteName":"Abington","Parameter":"Ozone","Elevation":209,"EndDate":"2011-02-26T07:00:00.000Z","StartDate":"1994-01-01T07:00:00.000Z","Active":0,"Order":5},"type":"Feature"},{"geometry":{"coordinates":[-68.261,44.377],"type":"Point"},"properties":{"DataAccess":"CASTNet Ozone","ImNetworkID":"netn","SiteID":208,"SiteCode":"ACA416","EPACode":"230090103","SiteName":"Acadia NP","Parameter":"Ozone","Elevation":152,"EndDate":"2011-02-26T07:00:00.000Z","StartDate":"1998-02-01T07:00:00.000Z","Active":0,"Order":5},"type":"Feature"},{"geometry":{"coordinates":[-89.6219,38.8689],"type":"Point"},"properties":{"DataAccess":"CASTNet Ozone","ImNetworkID":"htln","SiteID":209,"SiteCode":"ALH157","EPACode":"171199991","SiteName":"Alhambra","Parameter":"Ozone","Elevation":164,"EndDate":"2011-02-26T07:00:00.000Z","StartDate":"1988-07-01T06:00:00.000Z","Active":0,"Order":5},"type":"Feature"},{"geometry":{"coordinates":[-89.6219,38.8689],"type":"Point"},"properties":{"DataAccess":"CASTNet Ozone","ImNetworkID":"htln","SiteID":210,"SiteCode":"ALH257","EPACode":"","SiteName":"Alhambra Collocated","Parameter":"Ozone","Elevation":164,"EndDate":"1990-09-30T06:00:00.000Z","StartDate":"1989-04-01T07:00:00.000Z","Active":0,"Order":5},"type":"Feature"},{"geometry":{"coordinates":[-83.9019,42.4164],"type":"Point"},"properties":{"DataAccess":"CASTNet Ozone","ImNetworkID":"glkn","SiteID":212,"SiteCode":"ANA115","EPACode":"261619991","SiteName":"Ann Arbor","Parameter":"Ozone","Elevation":267,"EndDate":"2011-02-26T07:00:00.000Z","StartDate":"1988-07-01T06:00:00.000Z","Active":0,"Order":5},"type":"Feature"},{"geometry":{"coordinates":[-87.99,41.7],"type":"Point"},"properties":{"DataAccess":"CASTNet Ozone","ImNetworkID":"glkn","SiteID":213,"SiteCode":"ANL146","EPACode":"","SiteName":"Argonne NL","Parameter":"Ozone","Elevation":229,"EndDate":"1993-03-31T07:00:00.000Z","StartDate":"1987-07-01T06:00:00.000Z","Active":0,"Order":5},"type":"Feature"},{"geometry":{"coordinates":[-77.3078,39.9231],"type":"Point"},"properties":{"DataAccess":"CASTNet Ozone","ImNetworkID":"midn","SiteID":214,"SiteCode":"ARE128","EPACode":"420019991","SiteName":"Arendtsville","Parameter":"Ozone","Elevation":269,"EndDate":"2011-02-26T07:00:00.000Z","StartDate":"1988-07-01T06:00:00.000Z","Active":0,"Order":5},"type":"Feature"},{"geometry":{"coordinates":[-77.3078,39.9231],"type":"Point"},"properties":{"DataAccess":"CASTNet Ozone","ImNetworkID":"midn","SiteID":215,"SiteCode":"ARE228","EPACode":"","SiteName":"Arendtsville Collocated","Parameter":"Ozone","Elevation":269,"EndDate":"1995-05-31T06:00:00.000Z","StartDate":"1990-10-01T06:00:00.000Z","Active":0,"Order":5},"type":"Feature"},{"geometry":{"coordinates":[-68.4142,46.6039],"type":"Point"},"properties":{"DataAccess":"CASTNet Ozone","ImNetworkID":"netn","SiteID":217,"SiteCode":"ASH135","EPACode":"230039991","SiteName":"Ashland","Parameter":"Ozone","Elevation":235,"EndDate":"2011-02-26T07:00:00.000Z","StartDate":"1989-01-01T07:00:00.000Z","Active":0,"Order":5},"type":"Feature"},{"geometry":{"coordinates":[-68.4142,46.6039],"type":"Point"},"properties":{"DataAccess":"CASTNet Ozone","ImNetworkID":"netn","SiteID":218,"SiteCode":"ASH235","EPACode":"","SiteName":"Ashland Collocated","Parameter":"Ozone","Elevation":235,"EndDate":"2001-09-30T06:00:00.000Z","StartDate":"1995-09-01T06:00:00.000Z","Active":0,"Order":5},"type":"Feature"},{"geometry":{"coordinates":[-103.177,29.31],"type":"Point"},"properties":{"DataAccess":"CASTNet Ozone","ImNetworkID":"chdn","SiteID":219,"SiteCode":"BBE401","EPACode":"480430101","SiteName":"Big Bend NP","Parameter":"Ozone","Elevation":1052,"EndDate":"2011-02-26T07:00:00.000Z","StartDate":"1995-07-01T06:00:00.000Z","Active":0,"Order":5},"type":"Feature"},{"geometry":{"coordinates":[-76.8175,39.0283],"type":"Point"},"properties":{"DataAccess":"CASTNet Ozone","ImNetworkID":"ncrn","SiteID":220,"SiteCode":"BEL116","EPACode":"240339991","SiteName":"Beltsville","Parameter":"Ozone","Elevation":46,"EndDate":"2011-02-26T07:00:00.000Z","StartDate":"1989-01-01T07:00:00.000Z","Active":0,"Order":5},"type":"Feature"},{"geometry":{"coordinates":[-76.6213,34.8843],"type":"Point"},"properties":{"DataAccess":"CASTNet Ozone","ImNetworkID":"secn","SiteID":221,"SiteCode":"BFT142","EPACode":"370319991","SiteName":"Beaufort","Parameter":"Ozone","Elevation":2,"EndDate":"2011-02-26T07:00:00.000Z","StartDate":"1994-01-01T07:00:00.000Z","Active":0,"Order":5},"type":"Feature"},{"geometry":{"coordinates":[-88.3719,40.0514],"type":"Point"},"properties":{"DataAccess":"CASTNet Ozone","ImNetworkID":"htln","SiteID":222,"SiteCode":"BVL130","EPACode":"170199991","SiteName":"Bondville","Parameter":"Ozone","Elevation":212,"EndDate":"2011-02-26T07:00:00.000Z","StartDate":"1988-04-01T07:00:00.000Z","Active":0,"Order":5},"type":"Feature"},{"geometry":{"coordinates":[-76.1115,38.4448],"type":"Point"},"properties":{"DataAccess":"CASTNet Ozone","ImNetworkID":"ncbn","SiteID":224,"SiteCode":"BWR139","EPACode":"240199991","SiteName":"Blackwater NWR","Parameter":"Ozone","Elevation":4,"EndDate":"2011-02-26T07:00:00.000Z","StartDate":"1995-07-01T06:00:00.000Z","Active":0,"Order":5},"type":"Feature"},{"geometry":{"coordinates":[-93.0989,34.1792],"type":"Point"},"properties":{"DataAccess":"CASTNet Ozone","ImNetworkID":"htln","SiteID":225,"SiteCode":"CAD150","EPACode":"050199991","SiteName":"Caddo Valley","Parameter":"Ozone","Elevation":71,"EndDate":"2011-02-26T07:00:00.000Z","StartDate":"1988-10-01T06:00:00.000Z","Active":0,"Order":5},"type":"Feature"},{"geometry":{"coordinates":[-109.821,38.458],"type":"Point"},"properties":{"DataAccess":"CASTNet Ozone","ImNetworkID":"ncpn","SiteID":226,"SiteCode":"CAN407","EPACode":"490370101","SiteName":"Canyonlands NP","Parameter":"Ozone","Elevation":1814,"EndDate":"2011-02-26T07:00:00.000Z","StartDate":"1995-01-01T07:00:00.000Z","Active":0,"Order":5},"type":"Feature"},{"geometry":{"coordinates":[-74.5514,41.9411],"type":"Point"},"properties":{"DataAccess":"CASTNet Ozone","ImNetworkID":"netn","SiteID":227,"SiteCode":"CAT175","EPACode":"","SiteName":"Claryville","Parameter":"Ozone","Elevation":765,"EndDate":"2011-02-26T07:00:00.000Z","StartDate":"1994-05-01T06:00:00.000Z","Active":0,"Order":5},"type":"Feature"},{"geometry":{"coordinates":[-80.8479,38.8794],"type":"Point"},"properties":{"DataAccess":"CASTNet Ozone","ImNetworkID":"ermn","SiteID":228,"SiteCode":"CDR119","EPACode":"540219991","SiteName":"Cedar Creek","Parameter":"Ozone","Elevation":234,"EndDate":"2011-02-26T07:00:00.000Z","StartDate":"1988-01-01T07:00:00.000Z","Active":0,"Order":5},"type":"Feature"},{"geometry":{"coordinates":[-87.8504,36.7854],"type":"Point"},"properties":{"DataAccess":"CASTNet Ozone","ImNetworkID":"cupn","SiteID":229,"SiteCode":"CDZ171","EPACode":"212219991","SiteName":"Cadiz","Parameter":"Ozone","Elevation":189,"EndDate":"2011-02-26T07:00:00.000Z","StartDate":"1993-10-01T06:00:00.000Z","Active":0,"Order":5},"type":"Feature"},{"geometry":{"coordinates":[-109.389,32.0097],"type":"Point"},"properties":{"DataAccess":"CASTNet Ozone","ImNetworkID":"sodn","SiteID":231,"SiteCode":"CHA267","EPACode":"","SiteName":"Chiricahua NM Collocated","Parameter":"Ozone","Elevation":1570,"EndDate":"1992-09-30T06:00:00.000Z","StartDate":"1989-07-01T06:00:00.000Z","Active":0,"Order":5},"type":"Feature"},{"geometry":{"coordinates":[-109.389,32.0097],"type":"Point"},"properties":{"DataAccess":"CASTNet Ozone","ImNetworkID":"sodn","SiteID":232,"SiteCode":"CHA467","EPACode":"040038001","SiteName":"Chiricahua NM (NPS)","Parameter":"Ozone","Elevation":1570,"EndDate":"2011-02-26T07:00:00.000Z","StartDate":"1989-07-01T06:00:00.000Z","Active":0,"Order":5},"type":"Feature"},{"geometry":{"coordinates":[-83.0658,37.9211],"type":"Point"},"properties":{"DataAccess":"CASTNet Ozone","ImNetworkID":"cupn","SiteID":233,"SiteCode":"CKT136","EPACode":"211759991","SiteName":"Crockett","Parameter":"Ozone","Elevation":455,"EndDate":"2011-02-26T07:00:00.000Z","StartDate":"1993-08-24T06:00:00.000Z","Active":0,"Order":5},"type":"Feature"},{"geometry":{"coordinates":[-79.837,35.2637],"type":"Point"},"properties":{"DataAccess":"CASTNet Ozone","ImNetworkID":"secn","SiteID":234,"SiteCode":"CND125","EPACode":"371239991","SiteName":"Candor","Parameter":"Ozone","Elevation":198,"EndDate":"2011-02-26T07:00:00.000Z","StartDate":"1990-10-01T06:00:00.000Z","Active":0,"Order":5},"type":"Feature"},{"geometry":{"coordinates":[-106.242,41.3722],"type":"Point"},"properties":{"DataAccess":"CASTNet Ozone","ImNetworkID":"romn","SiteID":236,"SiteCode":"CNT169","EPACode":"560019991","SiteName":"Centennial","Parameter":"Ozone","Elevation":3178,"EndDate":"2011-02-26T07:00:00.000Z","StartDate":"1989-07-01T06:00:00.000Z","Active":0,"Order":5},"type":"Feature"},{"geometry":{"coordinates":[-83.4302,35.0605],"type":"Point"},"properties":{"DataAccess":"CASTNet Ozone","ImNetworkID":"aphn","SiteID":237,"SiteCode":"COW137","EPACode":"371139991","SiteName":"Coweeta 137","Parameter":"Ozone","Elevation":686,"EndDate":"2011-02-26T07:00:00.000Z","StartDate":"1988-01-01T07:00:00.000Z","Active":0,"Order":5},"type":"Feature"},{"geometry":{"coordinates":[-76.6536,42.4011],"type":"Point"},"properties":{"DataAccess":"CASTNet Ozone","ImNetworkID":"ermn","SiteID":239,"SiteCode":"CTH110","EPACode":"361099991","SiteName":"Connecticut Hill","Parameter":"Ozone","Elevation":501,"EndDate":"2011-02-26T07:00:00.000Z","StartDate":"1987-10-01T06:00:00.000Z","Active":0,"Order":5},"type":"Feature"},{"geometry":{"coordinates":[-89.7989,34.0028],"type":"Point"},"properties":{"DataAccess":"CASTNet Ozone","ImNetworkID":"guln","SiteID":241,"SiteCode":"CVL151","EPACode":"281619991","SiteName":"Coffeeville","Parameter":"Ozone","Elevation":134,"EndDate":"2011-02-26T07:00:00.000Z","StartDate":"1989-01-01T07:00:00.000Z","Active":0,"Order":5},"type":"Feature"},{"geometry":{"coordinates":[-83.258,39.6358],"type":"Point"},"properties":{"DataAccess":"CASTNet Ozone","ImNetworkID":"htln","SiteID":242,"SiteCode":"DCP114","EPACode":"390479991","SiteName":"Deer Creek","Parameter":"Ozone","Elevation":267,"EndDate":"2011-02-26T07:00:00.000Z","StartDate":"1988-10-01T06:00:00.000Z","Active":0,"Order":5},"type":"Feature"},{"geometry":{"coordinates":[-83.258,39.6358],"type":"Point"},"properties":{"DataAccess":"CASTNet Ozone","ImNetworkID":"htln","SiteID":243,"SiteCode":"DCP214","EPACode":"","SiteName":"Deer Creek Collocated","Parameter":"Ozone","Elevation":267,"EndDate":"1992-09-30T06:00:00.000Z","StartDate":"1990-10-01T06:00:00.000Z","Active":0,"Order":5},"type":"Feature"},{"geometry":{"coordinates":[-148.968,63.723],"type":"Point"},"properties":{"DataAccess":"CASTNet Ozone","ImNetworkID":"cakn","SiteID":244,"SiteCode":"DEN417","EPACode":"020680003","SiteName":"Denali NP","Parameter":"Ozone","Elevation":661,"EndDate":"2011-02-26T07:00:00.000Z","StartDate":"1998-01-01T07:00:00.000Z","Active":0,"Order":5},"type":"Feature"},{"geometry":{"coordinates":[-116.838,36.508],"type":"Point"},"properties":{"DataAccess":"CASTNet Ozone","ImNetworkID":"modn","SiteID":245,"SiteCode":"DEV412","EPACode":"","SiteName":"Death Valley NM","Parameter":"Ozone","Elevation":125,"EndDate":"2008-05-11T06:00:00.000Z","StartDate":"1995-01-01T07:00:00.000Z","Active":0,"Order":5},"type":"Feature"},{"geometry":{"coordinates":[-85.734,36.0393],"type":"Point"},"properties":{"DataAccess":"CASTNet Ozone","ImNetworkID":"cupn","SiteID":247,"SiteCode":"ESP127","EPACode":"470419991","SiteName":"Edgar Evins","Parameter":"Ozone","Elevation":302,"EndDate":"2011-02-26T07:00:00.000Z","StartDate":"1988-07-01T06:00:00.000Z","Active":0,"Order":5},"type":"Feature"},{"geometry":{"coordinates":[-80.683,25.388],"type":"Point"},"properties":{"DataAccess":"CASTNet Ozone","ImNetworkID":"sfcn","SiteID":248,"SiteCode":"EVE419","EPACode":"","SiteName":"Everglades NP","Parameter":"Ozone","Elevation":2,"EndDate":"2011-02-26T07:00:00.000Z","StartDate":"1998-01-01T07:00:00.000Z","Active":0,"Order":5},"type":"Feature"},{"geometry":{"coordinates":[-84.4053,33.1792],"type":"Point"},"properties":{"DataAccess":"CASTNet Ozone","ImNetworkID":"secn","SiteID":249,"SiteCode":"GAS153","EPACode":"132319991","SiteName":"Georgia Station","Parameter":"Ozone","Elevation":270,"EndDate":"2011-02-26T07:00:00.000Z","StartDate":"1988-07-01T06:00:00.000Z","Active":0,"Order":5},"type":"Feature"},{"geometry":{"coordinates":[-84.4053,33.1792],"type":"Point"},"properties":{"DataAccess":"CASTNet Ozone","ImNetworkID":"secn","SiteID":250,"SiteCode":"GAS253","EPACode":"","SiteName":"Georgia Station Collocated","Parameter":"Ozone","Elevation":270,"EndDate":"1990-09-30T06:00:00.000Z","StartDate":"1989-04-01T07:00:00.000Z","Active":0,"Order":5},"type":"Feature"},{"geometry":{"coordinates":[-113.995,48.51],"type":"Point"},"properties":{"DataAccess":"CASTNet Ozone","ImNetworkID":"romn","SiteID":252,"SiteCode":"GLR468","EPACode":"300298001","SiteName":"Glacier NP NPS","Parameter":"Ozone","Elevation":976,"EndDate":"2011-02-26T07:00:00.000Z","StartDate":"1989-04-01T07:00:00.000Z","Active":0,"Order":5},"type":"Feature"},{"geometry":{"coordinates":[-114.215,39.005],"type":"Point"},"properties":{"DataAccess":"CASTNet Ozone","ImNetworkID":"modn","SiteID":254,"SiteCode":"GRB411","EPACode":"320330101","SiteName":"Great Basin NP","Parameter":"Ozone","Elevation":2060,"EndDate":"2011-02-26T07:00:00.000Z","StartDate":"1995-04-01T07:00:00.000Z","Active":0,"Order":5},"type":"Feature"},{"geometry":{"coordinates":[-112.182,36.059],"type":"Point"},"properties":{"DataAccess":"CASTNet Ozone","ImNetworkID":"scpn","SiteID":255,"SiteCode":"GRC474","EPACode":"040058001","SiteName":"Grand Canyon NP (NPS)","Parameter":"Ozone","Elevation":2073,"EndDate":"2011-02-26T07:00:00.000Z","StartDate":"1989-07-01T06:00:00.000Z","Active":0,"Order":5},"type":"Feature"},{"geometry":{"coordinates":[-83.942,35.631],"type":"Point"},"properties":{"DataAccess":"CASTNet Ozone","ImNetworkID":"aphn","SiteID":256,"SiteCode":"GRS420","EPACode":"470090101","SiteName":"Great Smoky NP - Look Rock","Parameter":"Ozone","Elevation":793,"EndDate":"2011-02-26T07:00:00.000Z","StartDate":"1998-01-01T07:00:00.000Z","Active":0,"Order":5},"type":"Feature"},{"geometry":{"coordinates":[-106.985,38.9573],"type":"Point"},"properties":{"DataAccess":"CASTNet Ozone","ImNetworkID":"ncpn","SiteID":257,"SiteCode":"GTH161","EPACode":"080519991","SiteName":"Gothic","Parameter":"Ozone","Elevation":2926,"EndDate":"2011-02-26T07:00:00.000Z","StartDate":"1989-07-01T06:00:00.000Z","Active":0,"Order":5},"type":"Feature"},{"geometry":{"coordinates":[-68.7092,45.2161],"type":"Point"},