{"type":"FeatureCollection","features":[{"geometry":{"coordinates":[-68.261,44.3771],"type":"Point"},"properties":{"Data Access":"IMPROVE","ImNetworkID":"netn","Site ID":1,"Site Code":"ACAD1","EPA Code":"230090103","Site Name":"Acadia NP","Parameter":"Visibility","Elevation":157,"End Date":"2013-08-29T06:00:00.000Z","Start Date":"1988-03-02T07:00:00.000Z","State":"ME","State FIPS":"23","Active":1},"type":"Feature"},{"geometry":{"coordinates":[-67.2661,45.1259],"type":"Point"},"properties":{"Data Access":"IMPROVE","ImNetworkID":"netn","Site ID":2,"Site Code":"MOOS1","EPA Code":"230291004","Site Name":"Moosehorn NWR","Parameter":"Visibility","Elevation":77,"End Date":"2013-08-29T06:00:00.000Z","Start Date":"1994-12-03T07:00:00.000Z","State":"ME","State FIPS":"23","Active":1},"type":"Feature"},{"geometry":{"coordinates":[-73.1268,43.1482],"type":"Point"},"properties":{"Data Access":"IMPROVE","ImNetworkID":"netn","Site ID":3,"Site Code":"LYBR1","EPA Code":"500038001","Site Name":"Lye Brook Wilderness","Parameter":"Visibility","Elevation":1015,"End Date":"2012-09-30T06:00:00.000Z","Start Date":"1991-09-04T06:00:00.000Z","State":"VT","State FIPS":"50","Active":0},"type":"Feature"},{"geometry":{"coordinates":[-71.2177,44.3082],"type":"Point"},"properties":{"Data Access":"IMPROVE","ImNetworkID":"netn","Site ID":4,"Site Code":"GRGU1","EPA Code":"330074002","Site Name":"Great Gulf Wilderness","Parameter":"Visibility","Elevation":453,"End Date":"2013-08-29T06:00:00.000Z","Start Date":"1995-06-03T06:00:00.000Z","State":"NH","State FIPS":"33","Active":1},"type":"Feature"},{"geometry":{"coordinates":[-74.4492,39.465],"type":"Point"},"properties":{"Data Access":"IMPROVE","ImNetworkID":"ncbn","Site ID":5,"Site Code":"BRIG1","EPA Code":"340019000","Site Name":"Brigantine NWR","Parameter":"Visibility","Elevation":5,"End Date":"2013-08-29T06:00:00.000Z","Start Date":"1991-09-04T06:00:00.000Z","State":"NJ","State FIPS":"34","Active":1},"type":"Feature"},{"geometry":{"coordinates":[-78.4348,38.5229],"type":"Point"},"properties":{"Data Access":"IMPROVE","ImNetworkID":"midn","Site ID":6,"Site Code":"SHEN1","EPA Code":"511139000","Site Name":"Shenandoah NP","Parameter":"Visibility","Elevation":1079,"End Date":"2013-08-29T06:00:00.000Z","Start Date":"1988-03-02T07:00:00.000Z","State":"VA","State FIPS":"51","Active":1},"type":"Feature"},{"geometry":{"coordinates":[-79.5125,37.6266],"type":"Point"},"properties":{"Data Access":"IMPROVE","ImNetworkID":"aphn","Site ID":7,"Site Code":"JARI1","EPA Code":"511639000","Site Name":"James River Face Wilderness","Parameter":"Visibility","Elevation":289,"End Date":"2013-08-29T06:00:00.000Z","Start Date":"2000-06-03T06:00:00.000Z","State":"VA","State FIPS":"51","Active":1},"type":"Feature"},{"geometry":{"coordinates":[-79.4261,39.1053],"type":"Point"},"properties":{"Data Access":"IMPROVE","ImNetworkID":"midn","Site ID":8,"Site Code":"DOSO1","EPA Code":"540939000","Site Name":"Dolly Sods Wilderness","Parameter":"Visibility","Elevation":1182,"End Date":"2013-08-29T06:00:00.000Z","Start Date":"1991-09-04T06:00:00.000Z","State":"WV","State FIPS":"54","Active":1},"type":"Feature"},{"geometry":{"coordinates":[-86.1479,37.1318],"type":"Point"},"properties":{"Data Access":"IMPROVE","ImNetworkID":"cupn","Site ID":9,"Site Code":"MACA1","EPA Code":"210619000","Site Name":"Mammoth Cave NP","Parameter":"Visibility","Elevation":235,"End Date":"2013-08-29T06:00:00.000Z","Start Date":"1991-09-04T06:00:00.000Z","State":"KY","State FIPS":"21","Active":1},"type":"Feature"},{"geometry":{"coordinates":[-83.9416,35.6334],"type":"Point"},"properties":{"Data Access":"IMPROVE","ImNetworkID":"aphn","Site ID":10,"Site Code":"GRSM1","EPA Code":"470090101","Site Name":"Great Smoky Mountains NP","Parameter":"Visibility","Elevation":810,"End Date":"2013-08-29T06:00:00.000Z","Start Date":"1988-03-02T07:00:00.000Z","State":"TN","State FIPS":"47","Active":1},"type":"Feature"},{"geometry":{"coordinates":[-82.7744,35.3937],"type":"Point"},"properties":{"Data Access":"IMPROVE","ImNetworkID":"aphn","Site ID":11,"Site Code":"SHRO1","EPA Code":"370870035","Site Name":"Shining Rock Wilderness","Parameter":"Visibility","Elevation":1617,"End Date":"2013-08-29T06:00:00.000Z","Start Date":"1994-06-01T06:00:00.000Z","State":"NC","State FIPS":"37","Active":1},"type":"Feature"},{"geometry":{"coordinates":[-84.6265,34.7852],"type":"Point"},"properties":{"Data Access":"IMPROVE","ImNetworkID":"cupn","Site ID":12,"Site Code":"COHU1","EPA Code":"132139000","Site Name":"Cohutta","Parameter":"Visibility","Elevation":735,"End Date":"2013-08-29T06:00:00.000Z","Start Date":"2000-06-03T06:00:00.000Z","State":"GA","State FIPS":"13","Active":1},"type":"Feature"},{"geometry":{"coordinates":[-81.9331,35.9723],"type":"Point"},"properties":{"Data Access":"IMPROVE","ImNetworkID":"aphn","Site ID":13,"Site Code":"LIGO1","EPA Code":"370110002","Site Name":"Linville Gorge","Parameter":"Visibility","Elevation":968,"End Date":"2013-08-29T06:00:00.000Z","Start Date":"2000-04-01T07:00:00.000Z","State":"NC","State FIPS":"37","Active":1},"type":"Feature"},{"geometry":{"coordinates":[-76.2075,35.451],"type":"Point"},"properties":{"Data Access":"IMPROVE","ImNetworkID":"secn","Site ID":14,"Site Code":"SWAN1","EPA Code":"370959000","Site Name":"Swanquarter","Parameter":"Visibility","Elevation":-3,"End Date":"2013-08-29T06:00:00.000Z","Start Date":"2000-06-10T06:00:00.000Z","State":"NC","State FIPS":"37","Active":1},"type":"Feature"},{"geometry":{"coordinates":[-79.6572,32.941],"type":"Point"},"properties":{"Data Access":"IMPROVE","ImNetworkID":"secn","Site ID":15,"Site Code":"ROMA1","EPA Code":"450190046","Site Name":"Cape Romain NWR","Parameter":"Visibility","Elevation":4,"End Date":"2013-08-29T06:00:00.000Z","Start Date":"1994-09-03T06:00:00.000Z","State":"SC","State FIPS":"45","Active":1},"type":"Feature"},{"geometry":{"coordinates":[-82.1283,30.7405],"type":"Point"},"properties":{"Data Access":"IMPROVE","ImNetworkID":"secn","Site ID":16,"Site Code":"OKEF1","EPA Code":"130499000","Site Name":"Okefenokee NWR","Parameter":"Visibility","Elevation":48,"End Date":"2013-08-29T06:00:00.000Z","Start Date":"1991-09-04T06:00:00.000Z","State":"GA","State FIPS":"13","Active":1},"type":"Feature"},{"geometry":{"coordinates":[-84.1614,30.0926],"type":"Point"},"properties":{"Data Access":"IMPROVE","ImNetworkID":"guln","Site ID":17,"Site Code":"SAMA1","EPA Code":"121290001","Site Name":"St. Marks","Parameter":"Visibility","Elevation":7,"End Date":"2013-08-29T06:00:00.000Z","Start Date":"2000-08-16T06:00:00.000Z","State":"FL","State FIPS":"12","Active":1},"type":"Feature"},{"geometry":{"coordinates":[-82.5549,28.7484],"type":"Point"},"properties":{"Data Access":"IMPROVE","ImNetworkID":"guln","Site ID":18,"Site Code":"CHAS1","EPA Code":"120179000","Site Name":"Chassahowitzka NWR","Parameter":"Visibility","Elevation":4,"End Date":"2013-08-29T06:00:00.000Z","Start Date":"1993-03-03T07:00:00.000Z","State":"FL","State FIPS":"12","Active":1},"type":"Feature"},{"geometry":{"coordinates":[-80.6806,25.391],"type":"Point"},"properties":{"Data Access":"IMPROVE","ImNetworkID":"sfcn","Site ID":19,"Site Code":"EVER1","EPA Code":"120860030","Site Name":"Everglades NP","Parameter":"Visibility","Elevation":1,"End Date":"2013-08-29T06:00:00.000Z","Start Date":"1988-09-03T06:00:00.000Z","State":"FL","State FIPS":"12","Active":1},"type":"Feature"},{"geometry":{"coordinates":[-89.2066,29.1189],"type":"Point"},"properties":{"Data Access":"IMPROVE","ImNetworkID":"guln","Site ID":20,"Site Code":"BRET1","EPA Code":"220759000","Site Name":"Breton","Parameter":"Visibility","Elevation":11,"End Date":"2005-08-29T06:00:00.000Z","Start Date":"2000-08-16T06:00:00.000Z","State":"LA","State FIPS":"22","Active":0},"type":"Feature"},{"geometry":{"coordinates":[-87.3388,34.3433],"type":"Point"},"properties":{"Data Access":"IMPROVE","ImNetworkID":"guln","Site ID":21,"Site Code":"SIPS1","EPA Code":"010799000","Site Name":"Sipsey Wilderness","Parameter":"Visibility","Elevation":286,"End Date":"2013-08-29T06:00:00.000Z","Start Date":"1992-03-04T07:00:00.000Z","State":"AL","State FIPS":"01","Active":1},"type":"Feature"},{"geometry":{"coordinates":[-85.9503,46.2889],"type":"Point"},"properties":{"Data Access":"IMPROVE","ImNetworkID":"glkn","Site ID":22,"Site Code":"SENE1","EPA Code":"261539000","Site Name":"Seney","Parameter":"Visibility","Elevation":214,"End Date":"2013-08-29T06:00:00.000Z","Start Date":"1999-11-17T07:00:00.000Z","State":"MI","State FIPS":"26","Active":1},"type":"Feature"},{"geometry":{"coordinates":[-91.4955,47.9466],"type":"Point"},"properties":{"Data Access":"IMPROVE","ImNetworkID":"glkn","Site ID":23,"Site Code":"BOWA1","EPA Code":"270759000","Site Name":"Boundary Waters Canoe Area","Parameter":"Visibility","Elevation":526,"End Date":"2013-08-29T06:00:00.000Z","Start Date":"1991-06-01T06:00:00.000Z","State":"MN","State FIPS":"27","Active":1},"type":"Feature"},{"geometry":{"coordinates":[-92.8303,48.4132],"type":"Point"},"properties":{"Data Access":"IMPROVE","ImNetworkID":"glkn","Site ID":24,"Site Code":"VOYA1","EPA Code":"271379001","Site Name":"Voyageurs NP #1","Parameter":"Visibility","Elevation":425,"End Date":"1999-12-29T07:00:00.000Z","Start Date":"1988-03-02T07:00:00.000Z","State":"MN","State FIPS":"27","Active":0},"type":"Feature"},{"geometry":{"coordinates":[-88.1491,47.4596],"type":"Point"},"properties":{"Data Access":"IMPROVE","ImNetworkID":"glkn","Site ID":25,"Site Code":"ISLE1","EPA Code":"260839000","Site Name":"Isle Royale NP","Parameter":"Visibility","Elevation":182,"End Date":"2013-08-29T06:00:00.000Z","Start Date":"1999-11-17T07:00:00.000Z","State":"MI","State FIPS":"26","Active":1},"type":"Feature"},{"geometry":{"coordinates":[-90.1432,36.9717],"type":"Point"},"properties":{"Data Access":"IMPROVE","ImNetworkID":"htln","Site ID":26,"Site Code":"MING1","EPA Code":"292070001","Site Name":"Mingo","Parameter":"Visibility","Elevation":111,"End Date":"2013-08-29T06:00:00.000Z","Start Date":"2000-06-03T06:00:00.000Z","State":"MO","State FIPS":"29","Active":1},"type":"Feature"},{"geometry":{"coordinates":[-93.203,35.8258],"type":"Point"},"properties":{"Data Access":"IMPROVE","ImNetworkID":"htln","Site ID":27,"Site Code":"UPBU1","EPA Code":"051019000","Site Name":"Upper Buffalo Wilderness","Parameter":"Visibility","Elevation":722,"End Date":"2013-08-29T06:00:00.000Z","Start Date":"1991-12-04T07:00:00.000Z","State":"AR","State FIPS":"05","Active":1},"type":"Feature"},{"geometry":{"coordinates":[-92.9221,36.6138],"type":"Point"},"properties":{"Data Access":"IMPROVE","ImNetworkID":"htln","Site ID":28,"Site Code":"HEGL1","EPA Code":"292130003","Site Name":"Hercules-Glades","Parameter":"Visibility","Elevation":404,"End Date":"2013-08-29T06:00:00.000Z","Start Date":"2001-03-02T07:00:00.000Z","State":"MO","State FIPS":"29","Active":1},"type":"Feature"},{"geometry":{"coordinates":[-94.1429,34.4544],"type":"Point"},"properties":{"Data Access":"IMPROVE","ImNetworkID":"htln","Site ID":29,"Site Code":"CACR1","EPA Code":"051130003","Site Name":"Caney Creek","Parameter":"Visibility","Elevation":683,"End Date":"2013-08-29T06:00:00.000Z","Start Date":"2000-06-24T06:00:00.000Z","State":"AR","State FIPS":"05","Active":1},"type":"Feature"},{"geometry":{"coordinates":[-98.713,34.7323],"type":"Point"},"properties":{"Data Access":"IMPROVE","ImNetworkID":"sopn","Site ID":30,"Site Code":"WIMO1","EPA Code":"400319000","Site Name":"Wichita Mountains","Parameter":"Visibility","Elevation":509,"End Date":"2013-08-29T06:00:00.000Z","Start Date":"2001-03-02T07:00:00.000Z","State":"OK","State FIPS":"40","Active":1},"type":"Feature"},{"geometry":{"coordinates":[-103.178,29.3027],"type":"Point"},"properties":{"Data Access":"IMPROVE","ImNetworkID":"chdn","Site ID":31,"Site Code":"BIBE1","EPA Code":"480430101","Site Name":"Big Bend NP","Parameter":"Visibility","Elevation":1066,"End Date":"2013-08-29T06:00:00.000Z","Start Date":"1988-03-02T07:00:00.000Z","State":"TX","State FIPS":"48","Active":1},"type":"Feature"},{"geometry":{"coordinates":[-104.8094,31.833],"type":"Point"},"properties":{"Data Access":"IMPROVE","ImNetworkID":"chdn","Site ID":32,"Site Code":"GUMO1","EPA Code":"481099000","Site Name":"Guadalupe Mountains NP","Parameter":"Visibility","Elevation":1672,"End Date":"2013-08-29T06:00:00.000Z","Start Date":"1988-03-02T07:00:00.000Z","State":"TX","State FIPS":"48","Active":1},"type":"Feature"},{"geometry":{"coordinates":[-106.2664,35.7797],"type":"Point"},"properties":{"Data Access":"IMPROVE","ImNetworkID":"scpn","Site ID":33,"Site Code":"BAND1","EPA Code":"350281002","Site Name":"Bandelier NM","Parameter":"Visibility","Elevation":1988,"End Date":"2013-08-29T06:00:00.000Z","Start Date":"1988-03-02T07:00:00.000Z","State":"NM","State FIPS":"35","Active":1},"type":"Feature"},{"geometry":{"coordinates":[-106.8447,36.0139],"type":"Point"},"properties":{"Data Access":"IMPROVE","ImNetworkID":"scpn","Site ID":34,"Site Code":"SAPE1","EPA Code":"350399000","Site Name":"San Pedro Parks","Parameter":"Visibility","Elevation":2935,"End Date":"2013-08-29T06:00:00.000Z","Start Date":"2000-08-16T06:00:00.000Z","State":"NM","State FIPS":"35","Active":1},"type":"Feature"},{"geometry":{"coordinates":[-105.452,36.5854],"type":"Point"},"properties":{"Data Access":"IMPROVE","ImNetworkID":"sopn","Site ID":35,"Site Code":"WHPE1","EPA Code":"350559000","Site Name":"Wheeler Peak","Parameter":"Visibility","Elevation":3366,"End Date":"2013-08-29T06:00:00.000Z","Start Date":"2000-08-16T06:00:00.000Z","State":"NM","State FIPS":"35","Active":1},"type":"Feature"},{"geometry":{"coordinates":[-104.4042,33.4598],"type":"Point"},"properties":{"Data Access":"IMPROVE","ImNetworkID":"chdn","Site ID":36,"Site Code":"SACR1","EPA Code":"350059000","Site Name":"Salt Creek","Parameter":"Visibility","Elevation":1072,"End Date":"2013-08-29T06:00:00.000Z","Start Date":"2000-04-08T06:00:00.000Z","State":"NM","State FIPS":"35","Active":1},"type":"Feature"},{"geometry":{"coordinates":[-105.5349,33.4687],"type":"Point"},"properties":{"Data Access":"IMPROVE","ImNetworkID":"chdn","Site ID":37,"Site Code":"WHIT1","EPA Code":"350279000","Site Name":"White Mountain","Parameter":"Visibility","Elevation":2063,"End Date":"2013-08-29T06:00:00.000Z","Start Date":"2001-12-03T07:00:00.000Z","State":"NM","State FIPS":"35","Active":1},"type":"Feature"},{"geometry":{"coordinates":[-106.852,33.8695],"type":"Point"},"properties":{"Data Access":"IMPROVE","ImNetworkID":"scpn","Site ID":38,"Site Code":"BOAP1","EPA Code":"350539000","Site Name":"Bosque del Apache","Parameter":"Visibility","Elevation":1389,"End Date":"2013-08-29T06:00:00.000Z","Start Date":"2000-04-15T06:00:00.000Z","State":"NM","State FIPS":"35","Active":1},"type":"Feature"},{"geometry":{"coordinates":[-109.389,32.0094],"type":"Point"},"properties":{"Data Access":"IMPROVE","ImNetworkID":"sodn","Site ID":39,"Site Code":"CHIR1","EPA Code":"040038001","Site Name":"Chiricahua NM","Parameter":"Visibility","Elevation":1554,"End Date":"2013-08-29T06:00:00.000Z","Start Date":"1988-03-02T07:00:00.000Z","State":"AZ","State FIPS":"04","Active":1},"type":"Feature"},{"geometry":{"coordinates":[-110.7371,32.1746],"type":"Point"},"properties":{"Data Access":"IMPROVE","ImNetworkID":"sodn","Site ID":40,"Site Code":"SAGU1","EPA Code":"040190021","Site Name":"Saguaro NM","Parameter":"Visibility","Elevation":941,"End Date":"2013-08-29T06:00:00.000Z","Start Date":"1988-06-01T06:00:00.000Z","State":"AZ","State FIPS":"04","Active":1},"type":"Feature"},{"geometry":{"coordinates":[-109.7692,35.0777],"type":"Point"},"properties":{"Data Access":"IMPROVE","ImNetworkID":"scpn","Site ID":41,"Site Code":"PEFO1","EPA Code":"040170119","Site Name":"Petrified Forest NP","Parameter":"Visibility","Elevation":1766,"End Date":"2013-08-29T06:00:00.000Z","Start Date":"1988-03-02T07:00:00.000Z","State":"AZ","State FIPS":"04","Active":1},"type":"Feature"},{"geometry":{"coordinates":[-108.2351,33.2204],"type":"Point"},"properties":{"Data Access":"IMPROVE","ImNetworkID":"sodn","Site ID":42,"Site Code":"GICL1","EPA Code":"350039000","Site Name":"Gila Wilderness","Parameter":"Visibility","Elevation":1775,"End Date":"2013-08-29T06:00:00.000Z","Start Date":"1994-03-02T07:00:00.000Z","State":"NM","State FIPS":"35","Active":1},"type":"Feature"},{"geometry":{"coordinates":[-109.4406,34.0584],"type":"Point"},"properties":{"Data Access":"IMPROVE","ImNetworkID":"scpn","Site ID":43,"Site Code":"BALD1","EPA Code":"040018001","Site Name":"Mount Baldy","Parameter":"Visibility","Elevation":2508,"End Date":"2013-08-29T06:00:00.000Z","Start Date":"2000-03-01T07:00:00.000Z","State":"AZ","State FIPS":"04","Active":1},"type":"Feature"},{"geometry":{"coordinates":[-111.1068,33.6548],"type":"Point"},"properties":{"Data Access":"IMPROVE","ImNetworkID":"sodn","Site ID":44,"Site Code":"TONT1","EPA Code":"040070010","Site Name":"Tonto NM","Parameter":"Visibility","Elevation":775,"End Date":"2013-08-29T06:00:00.000Z","Start Date":"1988-03-02T07:00:00.000Z","State":"AZ","State FIPS":"04","Active":1},"type":"Feature"},{"geometry":{"coordinates":[-110.9421,34.0908],"type":"Point"},"properties":{"Data Access":"IMPROVE","ImNetworkID":"sodn","Site ID":45,"Site Code":"SIAN1","EPA Code":"040078100","Site Name":"Sierra Ancha","Parameter":"Visibility","Elevation":1600,"End Date":"2013-08-29T06:00:00.000Z","Start Date":"2000-02-09T07:00:00.000Z","State":"AZ","State FIPS":"04","Active":1},"type":"Feature"},{"geometry":{"coordinates":[-111.6832,34.3405],"type":"Point"},"properties":{"Data Access":"IMPROVE","ImNetworkID":"sodn","Site ID":46,"Site Code":"IKBA1","EPA Code":"040258104","Site Name":"Ike's Backbone","Parameter":"Visibility","Elevation":1297,"End Date":"2013-08-29T06:00:00.000Z","Start Date":"2000-03-29T07:00:00.000Z","State":"AZ","State FIPS":"04","Active":1},"type":"Feature"},{"geometry":{"coordinates":[-111.9692,35.1406],"type":"Point"},"properties":{"Data Access":"IMPROVE","ImNetworkID":"scpn","Site ID":47,"Site Code":"SYCA1","EPA Code":"040058103","Site Name":"Sycamore Canyon","Parameter":"Visibility","Elevation":2046,"End Date":"2013-08-29T06:00:00.000Z","Start Date":"1991-09-04T06:00:00.000Z","State":"AZ","State FIPS":"04","Active":1},"type":"Feature"},{"geometry":{"coordinates":[-111.9841,35.9731],"type":"Point"},"properties":{"Data Access":"IMPROVE","ImNetworkID":"scpn","Site ID":48,"Site Code":"GRCA2","EPA Code":"040058102","Site Name":"Hance Camp at Grand Canyon NP","Parameter":"Visibility","Elevation":2267,"End Date":"2013-08-29T06:00:00.000Z","Start Date":"1996-03-02T07:00:00.000Z","State":"AZ","State FIPS":"04","Active":1},"type":"Feature"},{"geometry":{"coordinates":[-112.1736,37.6184],"type":"Point"},"properties":{"Data Access":"IMPROVE","ImNetworkID":"ncpn","Site ID":49,"Site Code":"BRCA1","EPA Code":"490170101","Site Name":"Bryce Canyon NP","Parameter":"Visibility","Elevation":2481,"End Date":"2013-08-29T06:00:00.000Z","Start Date":"1988-03-02T07:00:00.000Z","State":"UT","State FIPS":"49","Active":1},"type":"Feature"},{"geometry":{"coordinates":[-109.821,38.4587],"type":"Point"},"properties":{"Data Access":"IMPROVE","ImNetworkID":"ncpn","Site ID":50,"Site Code":"CANY1","EPA Code":"490379000","Site Name":"Canyonlands NP","Parameter":"Visibility","Elevation":1798,"End Date":"2013-08-29T06:00:00.000Z","Start Date":"1988-03-02T07:00:00.000Z","State":"UT","State FIPS":"49","Active":1},"type":"Feature"},{"geometry":{"coordinates":[-113.2243,37.4591],"type":"Point"},"properties":{"Data Access":"IMPROVE","ImNetworkID":"ncpn","Site ID":51,"Site Code":"ZION1","EPA Code":"490539000","Site Name":"Zion","Parameter":"Visibility","Elevation":1545,"End Date":"2004-08-22T06:00:00.000Z","Start Date":"2000-03-25T07:00:00.000Z","State":"UT","State FIPS":"49","Active":0},"type":"Feature"},{"geometry":{"coordinates":[-111.2926,38.3022],"type":"Point"},"properties":{"Data Access":"IMPROVE","ImNetworkID":"ncpn","Site ID":52,"Site Code":"CAPI1","EPA Code":"490559000","Site Name":"Capitol Reef NP","Parameter":"Visibility","Elevation":1896,"End Date":"2013-08-29T06:00:00.000Z","Start Date":"2000-04-19T06:00:00.000Z","State":"UT","State FIPS":"49","Active":1},"type":"Feature"},{"geometry":{"coordinates":[-105.5185,37.7249],"type":"Point"},"properties":{"Data Access":"IMPROVE","ImNetworkID":"romn","Site ID":53,"Site Code":"GRSA1","EPA Code":"080039000","Site Name":"Great Sand Dunes NM","Parameter":"Visibility","Elevation":2498,"End Date":"2013-08-29T06:00:00.000Z","Start Date":"1988-03-02T07:00:00.000Z","State":"CO","State FIPS":"08","Active":1},"type":"Feature"},{"geometry":{"coordinates":[-108.4907,37.1984],"type":"Point"},"properties":{"Data Access":"IMPROVE","ImNetworkID":"scpn","Site ID":54,"Site Code":"MEVE1","EPA Code":"080839000","Site Name":"Mesa Verde NP","Parameter":"Visibility","Elevation":2172,"End Date":"2013-08-29T06:00:00.000Z","Start Date":"1988-03-02T07:00:00.000Z","State":"CO","State FIPS":"08","Active":1},"type":"Feature"},{"geometry":{"coordinates":[-107.7999,37.6594],"type":"Point"},"properties":{"Data Access":"IMPROVE","ImNetworkID":"ncpn","Site ID":55,"Site Code":"WEMI1","EPA Code":"081119000","Site Name":"Weminuche Wilderness","Parameter":"Visibility","Elevation":2750,"End Date":"2013-08-29T06:00:00.000Z","Start Date":"1988-03-02T07:00:00.000Z","State":"CO","State FIPS":"08","Active":1},"type":"Feature"},{"geometry":{"coordinates":[-106.8209,39.1536],"type":"Point"},"properties":{"Data Access":"IMPROVE","ImNetworkID":"ncpn","Site ID":56,"Site Code":"WHRI1","EPA Code":"080979000","Site Name":"White River NF","Parameter":"Visibility","Elevation":3413,"End Date":"2013-08-29T06:00:00.000Z","Start Date":"1993-06-02T06:00:00.000Z","State":"CO","State FIPS":"08","Active":1},"type":"Feature"},{"geometry":{"coordinates":[-105.5457,40.2783],"type":"Point"},"properties":{"Data Access":"IMPROVE","ImNetworkID":"romn","Site ID":57,"Site Code":"ROMO1","EPA Code":"080699001","Site Name":"Rocky Mountain NP","Parameter":"Visibility","Elevation":2760,"End Date":"2013-08-29T06:00:00.000Z","Start Date":"1990-09-01T06:00:00.000Z","State":"CO","State FIPS":"08","Active":1},"type":"Feature"},{"geometry":{"coordinates":[-106.6766,40.5383],"type":"Point"},"properties":{"Data Access":"IMPROVE","ImNetworkID":"romn","Site ID":58,"Site Code":"MOZI1","EPA Code":"080579000","Site Name":"Mount Zirkel Wilderness","Parameter":"Visibility","Elevation":3243,"End Date":"2013-08-29T06:00:00.000Z","Start Date":"1994-06-01T06:00:00.000Z","State":"CO","State FIPS":"08","Active":1},"type":"Feature"},{"geometry":{"coordinates":[-101.9412,43.7435],"type":"Point"},"properties":{"Data Access":"IMPROVE","ImNetworkID":"ngpn","Site ID":59,"Site Code":"BADL1","EPA Code":"460710001","Site Name":"Badlands NP","Parameter":"Visibility","Elevation":736,"End Date":"2013-08-29T06:00:00.000Z","Start Date":"1988-03-02T07:00:00.000Z","State":"SD","State FIPS":"46","Active":1},"type":"Feature"},{"geometry":{"coordinates":[-103.4838,43.5576],"type":"Point"},"properties":{"Data Access":"IMPROVE","ImNetworkID":"ngpn","Site ID":60,"Site Code":"WICA1","EPA Code":"460330132","Site Name":"Wind Cave","Parameter":"Visibility","Elevation":1296,"End Date":"2013-08-29T06:00:00.000Z","Start Date":"1999-12-15T07:00:00.000Z","State":"SD","State FIPS":"46","Active":1},"type":"Feature"},{"geometry":{"coordinates":[-103.3777,46.8948],"type":"Point"},"properties":{"Data Access":"IMPROVE","ImNetworkID":"ngpn","Site ID":61,"Site Code":"THRO1","EPA Code":"380070002","Site Name":"Theodore Roosevelt","Parameter":"Visibility","Elevation":852,"End Date":"2013-08-29T06:00:00.000Z","Start Date":"1999-12-15T07:00:00.000Z","State":"ND","State FIPS":"38","Active":1},"type":"Feature"},{"geometry":{"coordinates":[-102.4022,48.6419],"type":"Point"},"properties":{"Data Access":"IMPROVE","ImNetworkID":"ngpn","Site ID":62,"Site Code":"LOST1","EPA Code":"380130004","Site Name":"Lostwood","Parameter":"Visibility","Elevation":696,"End Date":"2013-08-29T06:00:00.000Z","Start Date":"1999-12-15T07:00:00.000Z","State":"ND","State FIPS":"38","Active":1},"type":"Feature"},{"geometry":{"coordinates":[-104.4757,48.4871],"type":"Point"},"properties":{"Data Access":"IMPROVE","ImNetworkID":"ngpn","Site ID":63,"Site Code":"MELA1","EPA Code":"300919000","Site Name":"Medicine Lake","Parameter":"Visibility","Elevation":606,"End Date":"2013-08-29T06:00:00.000Z","Start Date":"1999-12-15T07:00:00.000Z","State":"MT","State FIPS":"30","Active":1},"type":"Feature"},{"geometry":{"coordinates":[-108.7196,47.5823],"type":"Point"},"properties":{"Data Access":"IMPROVE","ImNetworkID":"romn","Site ID":64,"Site Code":"ULBE1","EPA Code":"300279000","Site Name":"UL Bend","Parameter":"Visibility","Elevation":891,"End Date":"2013-08-29T06:00:00.000Z","Start Date":"2000-01-26T07:00:00.000Z","State":"MT","State FIPS":"30","Active":1},"type":"Feature"},{"geometry":{"coordinates":[-109.7579,42.9749],"type":"Point"},"properties":{"Data Access":"IMPROVE","ImNetworkID":"gryn","Site ID":65,"Site Code":"BRID1","EPA Code":"560359000","Site Name":"Bridger Wilderness","Parameter":"Visibility","Elevation":2626,"End Date":"2013-08-29T06:00:00.000Z","Start Date":"1988-03-02T07:00:00.000Z","State":"WY","State FIPS":"56","Active":1},"type":"Feature"},{"geometry":{"coordinates":[-110.4003,44.5654],"type":"Point"},"properties":{"Data Access":"IMPROVE","ImNetworkID":"gryn","Site ID":66,"Site Code":"YELL1","EPA Code":"560399001","Site Name":"Yellowstone NP 1","Parameter":"Visibility","Elevation":2442,"End Date":"1999-12-29T07:00:00.000Z","Start Date":"1988-03-09T07:00:00.000Z","State":"WY","State FIPS":"56","Active":0},"type":"Feature"},{"geometry":{"coordinates":[-109.3816,44.7448],"type":"Point"},"properties":{"Data Access":"IMPROVE","ImNetworkID":"gryn","Site ID":67,"Site Code":"NOAB1","EPA Code":"560299002","Site Name":"North Absaroka","Parameter":"Visibility","Elevation":2482,"End Date":"2013-08-29T06:00:00.000Z","Start Date":"2000-01-26T07:00:00.000Z","State":"WY","State FIPS":"56","Active":1},"type":"Feature"},{"geometry":{"coordinates":[-115.4261,41.8926],"type":"Point"},"properties":{"Data Access":"IMPROVE","ImNetworkID":"ucbn","Site ID":68,"Site Code":"JARB1","EPA Code":"320079000","Site Name":"Jarbidge Wilderness","Parameter":"Visibility","Elevation":1869,"End Date":"2013-08-29T06:00:00.000Z","Start Date":"1988-03-02T07:00:00.000Z","State":"NV","State FIPS":"32","Active":1},"type":"Feature"},{"geometry":{"coordinates":[-113.5551,43.4605],"type":"Point"},"properties":{"Data Access":"IMPROVE","ImNetworkID":"ucbn","Site ID":69,"Site Code":"CRMO1","EPA Code":"160230101","Site Name":"Craters of the Moon NM","Parameter":"Visibility","Elevation":1817,"End Date":"2013-08-29T06:00:00.000Z","Start Date":"1992-03-04T07:00:00.000Z","State":"ID","State FIPS":"16","Active":1},"type":"Feature"},{"geometry":{"coordinates":[-114.9271,44.1705],"type":"Point"},"properties":{"Data Access":"IMPROVE","ImNetworkID":"ucbn","Site ID":70,"Site Code":"SAWT1","EPA Code":"160370002","Site Name":"Sawtooth NF","Parameter":"Visibility","Elevation":1990,"End Date":"2013-08-29T06:00:00.000Z","Start Date":"1993-12-01T07:00:00.000Z","State":"ID","State FIPS":"16","Active":1},"type":"Feature"},{"geometry":{"coordinates":[-114.0001,45.8598],"type":"Point"},"properties":{"Data Access":"IMPROVE","ImNetworkID":"ucbn","Site ID":71,"Site Code":"SULA1","EPA Code":"300819000","Site Name":"Sula Peak","Parameter":"Visibility","Elevation":1895,"End Date":"2013-08-29T06:00:00.000Z","Start Date":"1994-06-01T06:00:00.000Z","State":"MT","State FIPS":"30","Active":1},"type":"Feature"},{"geometry":{"coordinates":[-113.9966,48.5105],"type":"Point"},"properties":{"Data Access":"IMPROVE","ImNetworkID":"romn","Site ID":72,"Site Code":"GLAC1","EPA Code":"300299001","Site Name":"Glacier NP","Parameter":"Visibility","Elevation":975,"End Date":"2013-08-29T06:00:00.000Z","Start Date":"1988-03-02T07:00:00.000Z","State":"MT","State FIPS":"30","Active":1},"type":"Feature"},{"geometry":{"coordinates":[-113.1544,47.1222],"type":"Point"},"properties":{"Data Access":"IMPROVE","ImNetworkID":"romn","Site ID":73,"Site Code":"MONT1","EPA Code":"300779000","Site Name":"Monture","Parameter":"Visibility","Elevation":1282,"End Date":"2013-08-29T06:00:00.000Z","Start Date":"2000-03-29T07:00:00.000Z","State":"MT","State FIPS":"30","Active":1},"type":"Feature"},{"geometry":{"coordinates":[-111.7107,46.8262],"type":"Point"},"properties":{"Data Access":"IMPROVE","ImNetworkID":"romn","Site ID":74,"Site Code":"GAMO1","EPA Code":"300499000","Site Name":"Gates of the Mountains","Parameter":"Visibility","Elevation":2387,"End Date":"2013-08-29T06:00:00.000Z","Start Date":"2000-07-26T06:00:00.000Z","State":"MT","State FIPS":"30","Active":1},"type":"Feature"},{"geometry":{"coordinates":[-115.6709,47.9549],"type":"Point"},"properties":{"Data Access":"IMPROVE","ImNetworkID":"romn","Site ID":75,"Site Code":"CABI1","EPA Code":"300899000","Site Name":"Cabinet Mountains","Parameter":"Visibility","Elevation":1441,"End Date":"2013-08-29T06:00:00.000Z","Start Date":"2000-07-26T06:00:00.000Z","State":"MT","State FIPS":"30","Active":1},"type":"Feature"},{"geometry":{"coordinates":[-118.5129,45.2249],"type":"Point"},"properties":{"Data Access":"IMPROVE","ImNetworkID":"ucbn","Site ID":76,"Site Code":"STAR1","EPA Code":"410610010","Site Name":"Starkey","Parameter":"Visibility","Elevation":1259,"End Date":"2013-08-29T06:00:00.000Z","Start Date":"2000-03-15T07:00:00.000Z","State":"OR","State FIPS":"41","Active":1},"type":"Feature"},{"geometry":{"coordinates":[-116.8438,44.9702],"type":"Point"},"properties":{"Data Access":"IMPROVE","ImNetworkID":"ucbn","Site ID":77,"Site Code":"HECA1","EPA Code":"410630002","Site Name":"Hells Canyon","Parameter":"Visibility","Elevation":655,"End Date":"2013-08-29T06:00:00.000Z","Start Date":"2000-09-03T06:00:00.000Z","State":"OR","State FIPS":"41","Active":1},"type":"Feature"},{"geometry":{"coordinates":[-122.1244,46.7583],"type":"Point"},"properties":{"Data Access":"IMPROVE","ImNetworkID":"nccn","Site ID":78,"Site Code":"MORA1","EPA Code":"530530014","Site Name":"Mount Rainier NP","Parameter":"Visibility","Elevation":439,"End Date":"2013-08-29T06:00:00.000Z","Start Date":"1988-03-02T07:00:00.000Z","State":"WA","State FIPS":"53","Active":1},"type":"Feature"},{"geometry":{"coordinates":[-121.3881,46.6243],"type":"Point"},"properties":{"Data Access":"IMPROVE","ImNetworkID":"nccn","Site ID":79,"Site Code":"WHPA1","EPA Code":"530410007","Site Name":"White Pass","Parameter":"Visibility","Elevation":1827,"End Date":"2013-08-29T06:00:00.000Z","Start Date":"2000-02-16T07:00:00.000Z","State":"WA","State FIPS":"53","Active":1},"type":"Feature"},{"geometry":{"coordinates":[-121.4259,47.422],"type":"Point"},"properties":{"Data Access":"IMPROVE","ImNetworkID":"nccn","Site ID":80,"Site Code":"SNPA1","EPA Code":"530370004","Site Name":"Snoqualmie Pass","Parameter":"Visibility","Elevation":1049,"End Date":"2013-08-29T06:00:00.000Z","Start Date":"1993-06-02T06:00:00.000Z","State":"WA","State FIPS":"53","Active":1},"type":"Feature"},{"geometry":{"coordinates":[-121.0646,48.7316],"type":"Point"},"properties":{"Data Access":"IMPROVE","ImNetworkID":"nccn","Site ID":81,"Site Code":"NOCA1","EPA Code":"530730022","Site Name":"North Cascades","Parameter":"Visibility","Elevation":568,"End Date":"2013-08-29T06:00:00.000Z","Start Date":"1997-07-30T06:00:00.000Z","State":"WA","State FIPS":"53","Active":1},"type":"Feature"},{"geometry":{"coordinates":[-119.9275,48.3877],"type":"Point"},"properties":{"Data Access":"IMPROVE","ImNetworkID":"nccn","Site ID":82,"Site Code":"PASA1","EPA Code":"530470012","Site Name":"Pasayten","Parameter":"Visibility","Elevation":1627,"End Date":"2013-08-29T06:00:00.000Z","Start Date":"2000-11-02T07:00:00.000Z","State":"WA","State FIPS":"53","Active":1},"type":"Feature"},{"geometry":{"coordinates":[-122.9727,48.0065],"type":"Point"},"properties":{"Data Access":"IMPROVE","ImNetworkID":"nccn","Site ID":83,"Site Code":"OLYM1","EPA Code":"530090020","Site Name":"Olympic","Parameter":"Visibility","Elevation":599,"End Date":"2013-08-29T06:00:00.000Z","Start Date":"2001-07-12T06:00:00.000Z","State":"WA","State FIPS":"53","Active":1},"type":"Feature"},{"geometry":{"coordinates":[-122.0434,44.291],"type":"Point"},"properties":{"Data Access":"IMPROVE","ImNetworkID":"klmn","Site ID":84,"Site Code":"THSI1","EPA Code":"410390070","Site Name":"Three Sisters Wilderness","Parameter":"Visibility","Elevation":885,"End Date":"2013-08-29T06:00:00.000Z","Start Date":"1993-06-02T06:00:00.000Z","State":"OR","State FIPS":"41","Active":1},"type":"Feature"},{"geometry":{"coordinates":[-121.7837,45.2888],"type":"Point"},"properties":{"Data Access":"IMPROVE","ImNetworkID":"nccn","Site ID":85,"Site Code":"MOHO1","EPA Code":"410050010","Site Name":"Mount Hood","Parameter":"Visibility","Elevation":1531,"End Date":"2013-08-29T06:00:00.000Z","Start Date":"2000-03-15T07:00:00.000Z","State":"OR","State FIPS":"41","Active":1},"type":"Feature"},{"geometry":{"coordinates":[-122.1361,42.8958],"type":"Point"},"properties":{"Data Access":"IMPROVE","ImNetworkID":"klmn","Site ID":86,"Site Code":"CRLA1","EPA Code":"410358001","Site Name":"Crater Lake NP","Parameter":"Visibility","Elevation":1996,"End Date":"2013-08-29T06:00:00.000Z","Start Date":"1988-03-02T07:00:00.000Z","State":"OR","State FIPS":"41","Active":1},"type":"Feature"},{"geometry":{"coordinates":[-121.5068,41.7117],"type":"Point"},"properties":{"Data Access":"IMPROVE","ImNetworkID":"klmn","Site ID":87,"Site Code":"LABE1","EPA Code":"060930005","Site Name":"Lava Beds NM","Parameter":"Visibility","Elevation":1459,"End Date":"2013-08-29T06:00:00.000Z","Start Date":"2000-03-29T07:00:00.000Z","State":"CA","State FIPS":"06","Active":1},"type":"Feature"},{"geometry":{"coordinates":[-124.0839,41.5608],"type":"Point"},"properties":{"Data Access":"IMPROVE","ImNetworkID":"klmn","Site ID":88,"Site Code":"REDW1","EPA Code":"060150002","Site Name":"Redwood NP","Parameter":"Visibility","Elevation":243,"End Date":"2013-08-29T06:00:00.000Z","Start Date":"1988-03-02T07:00:00.000Z","State":"CA","State FIPS":"06","Active":1},"type":"Feature"},{"geometry":{"coordinates":[-124.0589,42.552],"type":"Point"},"properties":{"Data Access":"IMPROVE","ImNetworkID":"klmn","Site ID":89,"Site Code":"KALM1","EPA Code":"410330010","Site Name":"Kalmiopsis","Parameter":"Visibility","Elevation":80,"End Date":"2013-08-29T06:00:00.000Z","Start Date":"2000-03-11T07:00:00.000Z","State":"OR","State FIPS":"41","Active":1},"type":"Feature"},{"geometry":{"coordinates":[-121.5768,40.5398],"type":"Point"},"properties":{"Data Access":"IMPROVE","ImNetworkID":"klmn","Site ID":90,"Site Code":"LAVO1","EPA Code":"060893003","Site Name":"Lassen Volcanic NP","Parameter":"Visibility","Elevation":1732,"End Date":"2013-08-29T06:00:00.000Z","Start Date":"1988-03-02T07:00:00.000Z","State":"CA","State FIPS":"06","Active":1},"type":"Feature"},{"geometry":{"coordinates":[-122.9085,38.1224],"type":"Point"},"properties":{"Data Access":"IMPROVE","ImNetworkID":"sfan","Site ID":91,"Site Code":"PORE1","EPA Code":"060410002","Site Name":"Point Reyes National Seashore","Parameter":"Visibility","Elevation":97,"End Date":"2013-08-29T06:00:00.000Z","Start Date":"1988-03-02T07:00:00.000Z","State":"CA","State FIPS":"06","Active":1},"type":"Feature"},{"geometry":{"coordinates":[-121.1568,36.4833],"type":"Point"},"properties":{"Data Access":"IMPROVE","ImNetworkID":"sfan","Site ID":92,"Site Code":"PINN1","EPA Code":"060690003","Site Name":"Pinnacles NM","Parameter":"Visibility","Elevation":302,"End Date":"2013-08-29T06:00:00.000Z","Start Date":"1988-03-02T07:00:00.000Z","State":"CA","State FIPS":"06","Active":1},"type":"Feature"},{"geometry":{"coordinates":[-118.0282,34.2969],"type":"Point"},"properties":{"Data Access":"IMPROVE","ImNetworkID":"medn","Site ID":93,"Site Code":"SAGA1","EPA Code":"060379034","Site Name":"San Gabriel","Parameter":"Visibility","Elevation":1791,"End Date":"2013-08-29T06:00:00.000Z","Start Date":"2001-12-03T07:00:00.000Z","State":"CA","State FIPS":"06","Active":1},"type":"Feature"},{"geometry":{"coordinates":[-120.0074,34.7339],"type":"Point"},"properties":{"Data Access":"IMPROVE","ImNetworkID":"medn","Site ID":94,"Site Code":"RAFA1","EPA Code":"060839000","Site Name":"San Rafael","Parameter":"Visibility","Elevation":956,"End Date":"2013-08-29T06:00:00.000Z","Start Date":"2000-02-02T07:00:00.000Z","State":"CA","State FIPS":"06","Active":1},"type":"Feature"},{"geometry":{"coordinates":[-120.1025,38.9761],"type":"Point"},"properties":{"Data Access":"IMPROVE","ImNetworkID":"sien","Site ID":95,"Site Code":"BLIS1","EPA Code":"060179000","Site Name":"Bliss SP (TRPA)","Parameter":"Visibility","Elevation":2130,"End Date":"2013-08-29T06:00:00.000Z","Start Date":"1990-09-01T06:00:00.000Z","State":"CA","State FIPS":"06","Active":1},"type":"Feature"},{"geometry":{"coordinates":[-119.7061,37.7133],"type":"Point"},"properties":{"Data Access":"IMPROVE","ImNetworkID":"sien","Site ID":96,"Site Code":"YOSE1","EPA Code":"060430003","Site Name":"Yosemite NP","Parameter":"Visibility","Elevation":1603,"End Date":"2013-08-29T06:00:00.000Z","Start Date":"1988-03-02T07:00:00.000Z","State":"CA","State FIPS":"06","Active":1},"type":"Feature"},{"geometry":{"coordinates":[-119.1771,38.0881],"type":"Point"},"properties":{"Data Access":"IMPROVE","ImNetworkID":"sien","Site ID":97,"Site Code":"HOOV1","EPA Code":"060519000","Site Name":"Hoover","Parameter":"Visibility","Elevation":2560,"End Date":"2013-08-29T06:00:00.000Z","Start Date":"2001-06-06T06:00:00.000Z","State":"CA","State FIPS":"06","Active":1},"type":"Feature"},{"geometry":{"coordinates":[-118.8291,36.4894],"type":"Point"},"properties":{"Data Access":"IMPROVE","ImNetworkID":"sien","Site ID":98,"Site Code":"SEQU1","EPA Code":"061071001","Site Name":"Sequoia NP","Parameter":"Visibility","Elevation":519,"End Date":"2013-08-29T06:00:00.000Z","Start Date":"1992-03-04T07:00:00.000Z","State":"CA","State FIPS":"06","Active":1},"type":"Feature"},{"geometry":{"coordinates":[-116.9132,34.1939],"type":"Point"},"properties":{"Data Access":"IMPROVE","ImNetworkID":"modn","Site ID":99,"Site Code":"SAGO1","EPA Code":"060719010","Site Name":"San Gorgonio Wilderness","Parameter":"Visibility","Elevation":1726,"End Date":"2013-08-29T06:00:00.000Z","Start Date":"1988-03-02T07:00:00.000Z","State":"CA","State FIPS":"06","Active":1},"type":"Feature"},{"geometry":{"coordinates":[-116.9706,33.4636],"type":"Point"},"properties":{"Data Access":"IMPROVE","ImNetworkID":"medn","Site ID":100,"Site Code":"AGTI1","EPA Code":"060659000","Site Name":"Agua Tibia","Parameter":"Visibility","Elevation":507,"End Date":"2013-08-29T06:00:00.000Z","Start Date":"2000-12-20T07:00:00.000Z","State":"CA","State FIPS":"06","Active":1},"type":"Feature"},{"geometry":{"coordinates":[-116.3889,34.0695],"type":"Point"},"properties":{"Data Access":"IMPROVE","ImNetworkID":"modn","Site ID":101,"Site Code":"JOSH1","EPA Code":"060719002","Site Name":"Joshua Tree NP","Parameter":"Visibility","Elevation":1235,"End Date":"2013-08-29T06:00:00.000Z","Start Date":"2000-02-23T07:00:00.000Z","State":"CA","State FIPS":"06","Active":1},"type":"Feature"},{"geometry":{"coordinates":[-148.9675,63.7233],"type":"Point"},"properties":{"Data Access":"IMPROVE","ImNetworkID":"cakn","Site ID":102,"Site Code":"DENA1","EPA Code":"020680003","Site Name":"Denali NP","Parameter":"Visibility","Elevation":658,"End Date":"2013-08-29T06:00:00.000Z","Start Date":"1988-03-02T07:00:00.000Z","State":"AK","State FIPS":"02","Active":1},"type":"Feature"},{"geometry":{"coordinates":[-152.6656,59.9925],"type":"Point"},"properties":{"Data Access":"IMPROVE","ImNetworkID":"swan","Site ID":103,"Site Code":"TUXE1","EPA Code":"021220009","Site Name":"Tuxedni","Parameter":"Visibility","Elevation":15,"End Date":"2013-08-29T06:00:00.000Z","Start Date":"2001-12-03T07:00:00.000Z","State":"AK","State FIPS":"02","Active":1},"type":"Feature"},{"geometry":{"coordinates":[-122.8046,40.7864],"type":"Point"},"properties":{"Data Access":"IMPROVE","ImNetworkID":"klmn","Site ID":104,"Site Code":"TRIN1","EPA Code":"061059000","Site Name":"Trinity","Parameter":"Visibility","Elevation":1014,"End Date":"2013-08-29T06:00:00.000Z","Start Date":"2000-10-18T06:00:00.000Z","State":"CA","State FIPS":"06","Active":1},"type":"Feature"},{"geometry":{"coordinates":[-160.5063,55.3255],"type":"Point"},"properties":{"Data Access":"IMPROVE","Site ID":105,"Site Code":"SIME1","EPA Code":"020130002","Site Name":"Simeonof","Parameter":"Visibility","Elevation":57,"End Date":"2013-08-29T06:00:00.000Z","Start Date":"2001-09-13T06:00:00.000Z","State":"AK","State FIPS":"02","Active":1},"type":"Feature"},{"geometry":{"coordinates":[-64.7962,18.3363],"type":"Point"},"properties":{"Data Access":"IMPROVE","ImNetworkID":"sfcn","Site ID":106,"Site Code":"VIIS1","EPA Code":"780209000","Site Name":"Virgin Islands NP","Parameter":"Visibility","Elevation":51,"End Date":"2013-08-29T06:00:00.000Z","Start Date":"1990-09-01T06:00:00.000Z","State":"VI","State FIPS":"78","Active":1},"type":"Feature"},{"geometry":{"coordinates":[-155.2579,19.4309],"type":"Point"},"properties":{"Data Access":"IMPROVE","ImNetworkID":"pacn","Site ID":107,"Site Code":"HAVO1","EPA Code":"150019002","Site Name":"Hawaii Volcanoes NP","Parameter":"Visibility","Elevation":1258,"End Date":"2013-08-29T06:00:00.000Z","Start Date":"1988-03-02T07:00:00.000Z","State":"HI","State FIPS":"15","Active":1},"type":"Feature"},{"geometry":{"coordinates":[-156.2823,20.8086],"type":"Point"},"properties":{"Data Access":"IMPROVE","ImNetworkID":"pacn","Site ID":108,"Site Code":"HALE1","EPA Code":"150099000","Site Name":"Haleakala NP","Parameter":"Visibility","Elevation":1153,"End Date":"2012-05-30T06:00:00.000Z","Start Date":"1990-12-01T07:00:00.000Z","State":"HI","State FIPS":"15","Active":0},"type":"Feature"},{"geometry":{"coordinates":[-118.2021,35.6987],"type":"Point"},"properties":{"Data Access":"IMPROVE","ImNetworkID":"sien","Site ID":109,"Site Code":"DOLA1","EPA Code":"060299902","Site Name":"Dome Lands Wilderness","Parameter":"Visibility","Elevation":914,"End Date":"1999-12-29T07:00:00.000Z","Start Date":"1994-06-01T06:00:00.000Z","State":"CA","State FIPS":"06","Active":0},"type":"Feature"},{"geometry":{"coordinates":[-118.1377,35.7278],"type":"Point"},"properties":{"Data Access":"IMPROVE","ImNetworkID":"sien","Site ID":110,"Site Code":"DOME1","EPA Code":"060299001","Site Name":"Dome Lands Wilderness","Parameter":"Visibility","Elevation":927,"End Date":"2013-08-29T06:00:00.000Z","Start Date":"2000-02-02T07:00:00.000Z","State":"CA","State FIPS":"06","Active":1},"type":"Feature"},{"geometry":{"coordinates":[-119.1546,37.2207],"type":"Point"},"properties":{"Data Access":"IMPROVE","ImNetworkID":"sien","Site ID":111,"Site Code":"KAIS1","EPA Code":"060199000","Site Name":"Kaiser","Parameter":"Visibility","Elevation":2597,"End Date":"2013-08-29T06:00:00.000Z","Start Date":"2000-01-26T07:00:00.000Z","State":"CA","State FIPS":"06","Active":1},"type":"Feature"},{"geometry":{"coordinates":[-150.3156,62.3153],"type":"Point"},"properties":{"Data Access":"IMPROVE","ImNetworkID":"cakn","Site ID":112,"Site Code":"TRCR1","EPA Code":"021700011","Site Name":"Trapper Creek","Parameter":"Visibility","Elevation":155,"End Date":"2013-08-29T06:00:00.000Z","Start Date":"2001-09-13T06:00:00.000Z","State":"AK","State FIPS":"02","Active":1},"type":"Feature"},{"geometry":{"coordinates":[-121.0008,45.6644],"type":"Point"},"properties":{"Data Access":"IMPROVE","ImNetworkID":"nccn","Site ID":113,"Site Code":"CORI1","EPA Code":"530390011","Site Name":"Columbia River Gorge","Parameter":"Visibility","Elevation":178,"End Date":"2013-08-29T06:00:00.000Z","Start Date":"1993-06-02T06:00:00.000Z","State":"WA","State FIPS":"53","Active":1},"type":"Feature"},{"geometry":{"coordinates":[-114.026,45.1588],"type":"Point"},"properties":{"Data Access":"IMPROVE","ImNetworkID":"ucbn","Site ID":114,"Site Code":"SALM1","EPA Code":"160590007","Site Name":"Salmon NF","Parameter":"Visibility","Elevation":2788,"End Date":"2000-11-05T07:00:00.000Z","Start Date":"1993-12-01T07:00:00.000Z","State":"ID","State FIPS":"16","Active":0},"type":"Feature"},{"geometry":{"coordinates":[-106.2418,41.3662],"type":"Point"},"properties":{"Data Access":"IMPROVE","ImNetworkID":"romn","Site ID":115,"Site Code":"BRLA1","EPA Code":"560019000","Site Name":"Brooklyn Lake","Parameter":"Visibility","Elevation":3196,"End Date":"2004-01-31T07:00:00.000Z","Start Date":"1993-07-31T06:00:00.000Z","State":"WY","State FIPS":"56","Active":0},"type":"Feature"},{"geometry":{"coordinates":[-111.7081,40.4449],"type":"Point"},"properties":{"Data Access":"IMPROVE","ImNetworkID":"ncpn","Site ID":116,"Site Code":"LOPE1","EPA Code":"490499000","Site Name":"Lone Peak Wilderness","Parameter":"Visibility","Elevation":1768,"End Date":"2001-08-29T06:00:00.000Z","Start Date":"1993-12-01T07:00:00.000Z","State":"UT","State FIPS":"49","Active":0},"type":"Feature"},{"geometry":{"coordinates":[-114.2161,39.0052],"type":"Point"},"properties":{"Data Access":"IMPROVE","ImNetworkID":"modn","Site ID":117,"Site Code":"GRBA1","EPA Code":"320339000","Site Name":"Great Basin NP","Parameter":"Visibility","Elevation":2065,"End Date":"2013-08-29T06:00:00.000Z","Start Date":"1992-03-04T07:00:00.000Z","State":"NV","State FIPS":"32","Active":1},"type":"Feature"},{"geometry":{"coordinates":[-112.1288,36.0778],"type":"Point"},"properties":{"Data Access":"IMPROVE","ImNetworkID":"scpn","Site ID":118,"Site Code":"INGA1","EPA Code":"040058100","Site Name":"Indian Gardens","Parameter":"Visibility","Elevation":1166,"End Date":"2013-05-13T06:00:00.000Z","Start Date":"1989-09-02T06:00:00.000Z","State":"AZ","State FIPS":"04","Active":0},"type":"Feature"},{"geometry":{"coordinates":[-116.8478,36.5089],"type":"Point"},"properties":{"Data Access":"IMPROVE","ImNetworkID":"modn","Site ID":119,"Site Code":"DEVA1","EPA Code":"060270101","Site Name":"Death Valley NP","Parameter":"Visibility","Elevation":130,"End Date":"2013-04-28T06:00:00.000Z","Start Date":"1993-09-04T06:00:00.000Z","State":"CA","State FIPS":"06","Active":0},"type":"Feature"},{"geometry":{"coordinates":[-77.0344,38.8762],"type":"Point"},"properties":{"Data Access":"IMPROVE","ImNetworkID":"ncrn","Site ID":120,"Site Code":"WASH1","EPA Code":"110010042","Site Name":"Washington D.C.","Parameter":"Visibility","Elevation":15,"End Date":"2013-08-29T06:00:00.000Z","Start Date":"1988-03-02T07:00:00.000Z","State":"DC","State FIPS":"11","Active":1},"type":"Feature"},{"geometry":{"coordinates":[-111.2178,32.2486],"type":"Point"},"properties":{"Data Access":"IMPROVE","ImNetworkID":"sodn","Site ID":121,"Site Code":"SAWE1","EPA Code":"040199000","Site Name":"Saguaro West","Parameter":"Visibility","Elevation":714,"End Date":"2013-08-29T06:00:00.000Z","Start Date":"2001-10-31T07:00:00.000Z","State":"AZ","State FIPS":"04","Active":1},"type":"Feature"},{"geometry":{"coordinates":[-111.2858,33.2939],"type":"Point"},"properties":{"Data Access":"IMPROVE","ImNetworkID":"sodn","Site ID":122,"Site Code":"QUVA1","EPA Code":"040218001","Site Name":"Queen Valley","Parameter":"Visibility","Elevation":661,"End Date":"2013-08-29T06:00:00.000Z","Start Date":"2001-04-19T06:00:00.000Z","State":"AZ","State FIPS":"04","Active":1},"type":"Feature"},{"geometry":{"coordinates":[-112.8016,31.9506],"type":"Point"},"properties":{"Data Access":"IMPROVE","ImNetworkID":"sodn","Site ID":123,"Site Code":"ORPI1","EPA Code":"040190005","Site Name":"Organ Pipe","Parameter":"Visibility","Elevation":504,"End Date":"2013-08-29T06:00:00.000Z","Start Date":"2002-12-01T07:00:00.000Z","State":"AZ","State FIPS":"04","Active":1},"type":"Feature"},{"geometry":{"coordinates":[-112.9628,34.4289],"type":"Point"},"properties":{"Data Access":"IMPROVE","ImNetworkID":"sodn","Site ID":124,"Site Code":"HILL1","EPA Code":"040250005","Site Name":"Hillside","Parameter":"Visibility","Elevation":1510,"End Date":"2005-05-31T06:00:00.000Z","Start Date":"2001-04-19T06:00:00.000Z","State":"AZ","State FIPS":"04","Active":0},"type":"Feature"},{"geometry":{"coordinates":[-114.0684,36.0193],"type":"Point"},"properties":{"Data Access":"IMPROVE","ImNetworkID":"modn","Site ID":125,"Site Code":"MEAD1","EPA Code":"040159000","Site Name":"Meadview","Parameter":"Visibility","Elevation":902,"End Date":"2013-08-29T06:00:00.000Z","Start Date":"1991-09-04T06:00:00.000Z","State":"AZ","State FIPS":"04","Active":1},"type":"Feature"},{"geometry":{"coordinates":[-68.0333,46.6964],"type":"Point"},"properties":{"Data Access":"IMPROVE","ImNetworkID":"netn","Site ID":126,"Site Code":"PRIS1","EPA Code":"230031020","Site Name":"Presque Isle","Parameter":"Visibility","Elevation":165,"End Date":"2013-08-29T06:00:00.000Z","Start Date":"2001-03-08T07:00:00.000Z","State":"ME","State FIPS":"23","Active":1},"type":"Feature"},{"geometry":{"coordinates":[-68.6457,44.9334],"type":"Point"},"properties":{"Data Access":"IMPROVE","ImNetworkID":"netn","Site ID":127,"Site Code":"OLTO1","EPA Code":"230194003","Site Name":"Old Town","Parameter":"Visibility","Elevation":51,"End Date":"2006-05-29T06:00:00.000Z","Start Date":"2001-06-27T06:00:00.000Z","State":"ME","State FIPS":"23","Active":0},"type":"Feature"},{"geometry":{"coordinates":[-72.8688,44.5284],"type":"Point"},"properties":{"Data Access":"IMPROVE","ImNetworkID":"netn","Site ID":128,"Site Code":"PMRF1","EPA Code":"500070007","Site Name":"Proctor Maple R. F.","Parameter":"Visibility","Elevation":401,"End Date":"2013-08-29T06:00:00.000Z","Start Date":"1993-12-01T07:00:00.000Z","State":"VT","State FIPS":"50","Active":1},"type":"Feature"},{"geometry":{"coordinates":[-70.0644,43.8325],"type":"Point"},"properties":{"Data Access":"IMPROVE","ImNetworkID":"netn","Site ID":129,"Site Code":"CABA1","EPA Code":"230059002","Site Name":"Casco Bay","Parameter":"Visibility","Elevation":26,"End Date":"2013-08-29T06:00:00.000Z","Start Date":"2001-03-14T07:00:00.000Z","State":"ME","State FIPS":"23","Active":1},"type":"Feature"},{"geometry":{"coordinates":[-70.7292,44.1074],"type":"Point"},"properties":{"Data Access":"IMPROVE","ImNetworkID":"netn","Site ID":130,"Site Code":"BRMA1","EPA Code":"230050103","Site Name":"Bridgton","Parameter":"Visibility","Elevation":233,"End Date":"2013-08-29T06:00:00.000Z","Start Date":"2001-03-14T07:00:00.000Z","State":"ME","State FIPS":"23","Active":1},"type":"Feature"},{"geometry":{"coordinates":[-70.0242,41.9758],"type":"Point"},"properties":{"Data Access":"IMPROVE","ImNetworkID":"ncbn","Site ID":131,"Site Code":"CACO1","EPA Code":"250010002","Site Name":"Cape Cod","Parameter":"Visibility","Elevation":49,"End Date":"2013-08-29T06:00:00.000Z","Start Date":"2001-04-04T06:00:00.000Z","State":"MA","State FIPS":"25","Active":1},"type":"Feature"},{"geometry":{"coordinates":[-72.3346,42.2985],"type":"Point"},"properties":{"Data Access":"IMPROVE","ImNetworkID":"netn","Site ID":132,"Site Code":"QURE1","EPA Code":"250154002","Site Name":"Quabbin Summit","Parameter":"Visibility","Elevation":317,"End Date":"2013-08-29T06:00:00.000Z","Start Date":"2001-04-04T06:00:00.000Z","State":"MA","State FIPS":"25","Active":1},"type":"Feature"},{"geometry":{"coordinates":[-70.7846,41.3309],"type":"Point"},"properties":{"Data Access":"IMPROVE","ImNetworkID":"ncbn","Site ID":133,"Site Code":"MAVI1","EPA Code":"250070001","Site Name":"Martha's Vineyard","Parameter":"Visibility","Elevation":2,"End Date":"2013-08-29T06:00:00.000Z","Start Date":"2002-12-01T07:00:00.000Z","State":"MA","State FIPS":"25","Active":1},"type":"Feature"},{"geometry":{"coordinates":[-73.2973,41.8214],"type":"Point"},"properties":{"Data Access":"IMPROVE","ImNetworkID":"netn","Site ID":134,"Site Code":"MOMO1","EPA Code":"090050005","Site Name":"Mohawk Mt.","Parameter":"Visibility","Elevation":521,"End Date":"2013-08-29T06:00:00.000Z","Start Date":"2001-09-13T06:00:00.000Z","State":"CT","State FIPS":"09","Active":1},"type":"Feature"},{"geometry":{"coordinates":[-117.8609,47.9045],"type":"Point"},"properties":{"Data Access":"IMPROVE","ImNetworkID":"ucbn","Site ID":135,"Site Code":"SPOK1","EPA Code":"530630051","Site Name":"Spokane Res.","Parameter":"Visibility","Elevation":552,"End Date":"2005-06-30T06:00:00.000Z","Start Date":"2001-07-12T06:00:00.000Z","State":"WA","State FIPS":"53","Active":0},"type":"Feature"},{"geometry":{"coordinates":[-76.6534,42.4009],"type":"Point"},"properties":{"Data Access":"IMPROVE","ImNetworkID":"ermn","Site ID":136,"Site Code":"COHI1","EPA Code":"361099000","Site Name":"Connecticut Hill","Parameter":"Visibility","Elevation":519,"End Date":"2006-06-25T06:00:00.000Z","Start Date":"2001-04-04T06:00:00.000Z","State":"NY","State FIPS":"36","Active":0},"type":"Feature"},{"geometry":{"coordinates":[-80.1453,41.4269],"type":"Point"},"properties":{"Data Access":"IMPROVE","ImNetworkID":"ermn","Site ID":137,"Site Code":"MKGO1","EPA Code":"420859000","Site Name":"M.K. Goddard","Parameter":"Visibility","Elevation":379,"End Date":"2010-12-31T07:00:00.000Z","Start Date":"2001-04-04T06:00:00.000Z","State":"PA","State FIPS":"42","Active":0},"type":"Feature"},{"geometry":{"coordinates":[-77.3079,39.9232],"type":"Point"},"properties":{"Data Access":"IMPROVE","ImNetworkID":"midn","Site ID":138,"Site Code":"AREN1","EPA Code":"420019000","Site Name":"Arendtsville","Parameter":"Visibility","Elevation":267,"End Date":"2010-12-31T07:00:00.000Z","Start Date":"2001-04-04T06:00:00.000Z","State":"PA","State FIPS":"42","Active":0},"type":"Feature"},{"geometry":{"coordinates":[-81.3378,39.9428],"type":"Point"},"properties":{"Data Access":"IMPROVE","ImNetworkID":"htln","Site ID":139,"Site Code":"QUCI1","EPA Code":"391219000","Site Name":"Quaker City","Parameter":"Visibility","Elevation":366,"End Date":"2013-08-29T06:00:00.000Z","Start Date":"2001-04-04T06:00:00.000Z","State":"OH","State FIPS":"39","Active":1},"type":"Feature"},{"geometry":{"coordinates":[-88.3733,40.052],"type":"Point"},"properties":{"Data Access":"IMPROVE","ImNetworkID":"htln","Site ID":140,"Site Code":"BOND1","EPA Code":"170191001","Site Name":"Bondville","Parameter":"Visibility","Elevation":263,"End Date":"2013-08-29T06:00:00.000Z","Start Date":"2001-03-08T07:00:00.000Z","State":"IL","State FIPS":"17","Active":1},"type":"Feature"},{"geometry":{"coordinates":[-86.2604,38.5346],"type":"Point"},"properties":{"Data Access":"IMPROVE","ImNetworkID":"htln","Site ID":141,"Site Code":"LIVO1","EPA Code":"181759000","Site Name":"Livonia","Parameter":"Visibility","Elevation":281,"End Date":"2010-12-31T07:00:00.000Z","Start Date":"2001-03-08T07:00:00.000Z","State":"IN","State FIPS":"18","Active":0},"type":"Feature"},{"geometry":{"coordinates":[-87.8501,36.7842],"type":"Point"},"properties":{"Data Access":"IMPROVE","ImNetworkID":"cupn","Site ID":142,"Site Code":"CADI1","EPA Code":"212219000","Site Name":"Cadiz","Parameter":"Visibility","Elevation":191,"End Date":"2010-12-31T07:00:00.000Z","Start Date":"2001-03-08T07:00:00.000Z","State":"KY","State FIPS":"21","Active":0},"type":"Feature"},{"geometry":{"coordinates":[-92.435,32.0574],"type":"Point"},"properties":{"Data Access":"IMPROVE","ImNetworkID":"guln","Site ID":143,"Site Code":"SIKE1","EPA Code":"221279000","Site Name":"Sikes","Parameter":"Visibility","Elevation":45,"End Date":"2010-12-31T07:00:00.000Z","Start Date":"2001-03-02T07:00:00.000Z","State":"LA","State FIPS":"22","Active":0},"type":"Feature"},{"geometry":{"coordinates":[-77.2099,42.0912],"type":"Point"},"properties":{"Data Access":"IMPROVE","ImNetworkID":"ermn","Site ID":144,"Site Code":"ADPI1","EPA Code":"361019000","Site Name":"Addison Pinnacle","Parameter":"Visibility","Elevation":512,"End Date":"2010-06-28T06:00:00.000Z","Start Date":"2001-04-04T06:00:00.000Z","State":"NY","State FIPS":"36","Active":0},"type":"Feature"},{"geometry":{"coordinates":[-122.2103,45.5693],"type":"Point"},"properties":{"Data Access":"IMPROVE","ImNetworkID":"nccn","Site ID":145,"Site Code":"COGO1","EPA Code":"530390010","Site Name":"Columbia Gorge #1","Parameter":"Visibility","Elevation":230,"End Date":"2011-10-30T06:00:00.000Z","Start Date":"1996-09-18T06:00:00.000Z","State":"WA","State FIPS":"53","Active":0},"type":"Feature"},{"geometry":{"coordinates":[-91.4052,43.9373],"type":"Point"},"properties":{"Data Access":"IMPROVE","ImNetworkID":"glkn","Site ID":146,"Site Code":"GRRI1","EPA Code":"271699000","Site Name":"Great River Bluffs","Parameter":"Visibility","Elevation":370,"End Date":"2013-08-29T06:00:00.000Z","Start Date":"2002-06-01T06:00:00.000Z","State":"MN","State FIPS":"27","Active":1},"type":"Feature"},{"geometry":{"coordinates":[-96.1913,43.7158],"type":"Point"},"properties":{"Data Access":"IMPROVE","ImNetworkID":"htln","Site ID":147,"Site Code":"BLMO1","EPA Code":"271339000","Site Name":"Blue Mounds","Parameter":"Visibility","Elevation":473,"End Date":"2013-08-29T06:00:00.000Z","Start Date":"2002-06-01T06:00:00.000Z","State":"MN","State FIPS":"27","Active":1},"type":"Feature"},{"geometry":{"coordinates":[-91.9883,40.6883],"type":"Point"},"properties":{"Data Access":"IMPROVE","ImNetworkID":"htln","Site ID":148,"Site Code":"LASU1","EPA Code":"191770006","Site Name":"Lake Sugema","Parameter":"Visibility","Elevation":210,"End Date":"2004-11-29T07:00:00.000Z","Start Date":"2002-05-08T06:00:00.000Z","State":"IA","State FIPS":"19","Active":0},"type":"Feature"},{"geometry":{"coordinates":[-95.045,40.969],"type":"Point"},"properties":{"Data Access":"IMPROVE","ImNetworkID":"htln","Site ID":149,"Site Code":"VILA1","EPA Code":"191370002","Site Name":"Viking Lake","Parameter":"Visibility","Elevation":371,"End Date":"2013-08-29T06:00:00.000Z","Start Date":"2002-05-08T06:00:00.000Z","State":"IA","State FIPS":"19","Active":1},"type":"Feature"},{"geometry":{"coordinates":[-100.3387,41.8888],"type":"Point"},"properties":{"Data Access":"IMPROVE","ImNetworkID":"ngpn","Site ID":151,"Site Code":"NEBR1","EPA Code":"311719000","Site Name":"Nebraska NF","Parameter":"Visibility","Elevation":883,"End Date":"2013-08-29T06:00:00.000Z","Start Date":"2002-06-01T06:00:00.000Z","State":"NE","State FIPS":"31","Active":1},"type":"Feature"},{"geometry":{"coordinates":[-102.4336,41.7627],"type":"Point"},"properties":{"Data Access":"IMPROVE","ImNetworkID":"ngpn","Site ID":153,"Site Code":"CRES1","EPA Code":"310699000","Site Name":"Crescent Lake","Parameter":"Visibility","Elevation":1207,"End Date":"2013-08-29T06:00:00.000Z","Start Date":"2002-06-01T06:00:00.000Z","State":"NE","State FIPS":"31","Active":1},"type":"Feature"},{"geometry":{"coordinates":[-95.5682,39.9791],"type":"Point"},"properties":{"Data Access":"IMPROVE","ImNetworkID":"htln","Site ID":154,"Site Code":"SAFO1","EPA Code":"200139000","Site Name":"Sac and Fox","Parameter":"Visibility","Elevation":293,"End Date":"2011-06-29T06:00:00.000Z","Start Date":"2002-06-01T06:00:00.000Z","State":"KS","State FIPS":"20","Active":0},"type":"Feature"},{"geometry":{"coordinates":[-96.5602,38.4341],"type":"Point"},"properties":{"Data Access":"IMPROVE","ImNetworkID":"htln","Site ID":155,"Site Code":"TALL1","EPA Code":"200170001","Site Name":"Tallgrass","Parameter":"Visibility","Elevation":390,"End Date":"2013-08-29T06:00:00.000Z","Start Date":"2002-09-02T06:00:00.000Z","State":"KS","State FIPS":"20","Active":1},"type":"Feature"},{"geometry":{"coordinates":[-99.7634,38.7701],"type":"Point"},"properties":{"Data Access":"IMPROVE","ImNetworkID":"sopn","Site ID":156,"Site Code":"CEBL1","EPA Code":"201950001","Site Name":"Cedar Bluff","Parameter":"Visibility","Elevation":665,"End Date":"2013-08-29T06:00:00.000Z","Start Date":"2002-06-01T06:00:00.000Z","State":"KS","State FIPS":"20","Active":1},"type":"Feature"},{"geometry":{"coordinates":[-94.0348,37.7009],"type":"Point"},"properties":{"Data Access":"IMPROVE","ImNetworkID":"htln","Site ID":157,"Site Code":"ELDO1","EPA Code":"290390001","Site Name":"El Dorado Springs","Parameter":"Visibility","Elevation":297,"End Date":"2013-08-29T06:00:00.000Z","Start Date":"2002-03-03T07:00:00.000Z","State":"MO","State FIPS":"29","Active":1},"type":"Feature"},{"geometry":{"coordinates":[-97.0313,36.9562],"type":"Point"},"properties":{"Data Access":"IMPROVE","ImNetworkID":"sopn","Site ID":158,"Site Code":"CHER1","EPA Code":"400719010","Site Name":"Cherokee Nation","Parameter":"Visibility","Elevation":342,"End Date":"2010-04-20T06:00:00.000Z","Start Date":"2002-09-02T06:00:00.000Z","State":"OK","State FIPS":"40","Active":0},"type":"Feature"},{"geometry":{"coordinates":[-99.9354,36.0853],"type":"Point"},"properties":{"Data Access":"IMPROVE","ImNetworkID":"sopn","Site ID":159,"Site Code":"ELLI1","EPA Code":"400450890","Site Name":"Ellis","Parameter":"Visibility","Elevation":697,"End Date":"2013-08-29T06:00:00.000Z","Start Date":"2002-03-03T07:00:00.000Z","State":"OK","State FIPS":"40","Active":1},"type":"Feature"},{"geometry":{"coordinates":[-105.1022,48.308],"type":"Point"},"properties":{"Data Access":"IMPROVE","ImNetworkID":"ngpn","Site ID":160,"Site Code":"FOPE1","EPA Code":"300859000","Site Name":"Fort Peck","Parameter":"Visibility","Elevation":638,"End Date":"2013-08-29T06:00:00.000Z","Start Date":"2002-06-01T06:00:00.000Z","State":"MT","State FIPS":"30","Active":1},"type":"Feature"},{"geometry":{"coordinates":[-106.5574,45.6495],"type":"Point"},"properties":{"Data Access":"IMPROVE","ImNetworkID":"romn","Site ID":161,"Site Code":"NOCH1","EPA Code":"300870762","Site Name":"Northern Cheyenne","Parameter":"Visibility","Elevation":1283,"End Date":"2013-08-29T06:00:00.000Z","Start Date":"2002-06-01T06:00:00.000Z","State":"MT","State FIPS":"30","Active":1},"type":"Feature"},{"geometry":{"coordinates":[-114.269,47.7734],"type":"Point"},"properties":{"Data Access":"IMPROVE","ImNetworkID":"romn","Site ID":162,"Site Code":"FLAT1","EPA Code":"300479000","Site Name":"Flathead","Parameter":"Visibility","Elevation":1580,"End Date":"2013-08-29T06:00:00.000Z","Start Date":"2002-06-01T06:00:00.000Z","State":"MT","State FIPS":"30","Active":1},"type":"Feature"},{"geometry":{"coordinates":[-106.9565,44.3335],"type":"Point"},"properties":{"Data Access":"IMPROVE","ImNetworkID":"romn","Site ID":163,"Site Code":"CLPE1","EPA Code":"560199000","Site Name":"Cloud Peak","Parameter":"Visibility","Elevation":2470,"End Date":"2013-08-29T06:00:00.000Z","Start Date":"2002-06-01T06:00:00.000Z","State":"WY","State FIPS":"56","Active":1},"type":"Feature"},{"geometry":{"coordinates":[-105.2874,44.6634],"type":"Point"},"properties":{"Data Access":"IMPROVE","ImNetworkID":"ngpn","Site ID":164,"Site Code":"THBA1","EPA Code":"560050123","Site Name":"Thunder Basin","Parameter":"Visibility","Elevation":1195,"End Date":"2013-08-29T06:00:00.000Z","Start Date":"2002-06-01T06:00:00.000Z","State":"WY","State FIPS":"56","Active":1},"type":"Feature"},{"geometry":{"coordinates":[-122.3119,47.5696],"type":"Point"},"properties":{"Data Access":"IMPROVE","ImNetworkID":"nccn","Site ID":165,"Site Code":"PUSO1","EPA Code":"530330080","Site Name":"Puget Sound","Parameter":"Visibility","Elevation":97,"End Date":"2013-08-29T06:00:00.000Z","Start Date":"1996-03-02T07:00:00.000Z","State":"WA","State FIPS":"53","Active":1},"type":"Feature"},{"geometry":{"coordinates":[-112.0958,33.5038],"type":"Point"},"properties":{"Data Access":"IMPROVE","ImNetworkID":"sodn","Site ID":166,"Site Code":"PHOE1","EPA Code":"040139997","Site Name":"Phoenix","Parameter":"Visibility","Elevation":342,"End Date":"2013-08-29T06:00:00.000Z","Start Date":"2001-04-19T06:00:00.000Z","State":"AZ","State FIPS":"04","Active":1},"type":"Feature"},{"geometry":{"coordinates":[-109.5833,38.7833],"type":"Point"},"properties":{"Data Access":"IMPROVE","ImNetworkID":"ncpn","Site ID":167,"Site Code":"ARCH1","EPA Code":"490190101","Site Name":"Arches NP","Parameter":"Visibility","Elevation":1722,"End Date":"1999-12-29T07:00:00.000Z","Start Date":"1988-03-02T07:00:00.000Z","State":"UT","State FIPS":"49","Active":0},"type":"Feature"},{"geometry":{"coordinates":[-112.1539,36.0658],"type":"Point"},"properties":{"Data Access":"IMPROVE","ImNetworkID":"scpn","Site ID":171,"Site Code":"GRCA1","EPA Code":"040052002","Site Name":"Hopi Point #1","Parameter":"Visibility","Elevation":2164,"End Date":"1999-12-29T07:00:00.000Z","Start Date":"1988-03-02T07:00:00.000Z","State":"AZ","State FIPS":"04","Active":0},"type":"Feature"},{"geometry":{"coordinates":[-89.15,47.9167],"type":"Point"},"properties":{"Data Access":"IMPROVE","ImNetworkID":"glkn","Site ID":173,"Site Code":"ISRO1","EPA Code":"260839001","Site Name":"Isle Royale NP","Parameter":"Visibility","Elevation":213,"End Date":"1999-12-29T07:00:00.000Z","Start Date":"1988-06-01T06:00:00.000Z","State":"MI","State FIPS":"26","Active":0},"type":"Feature"},{"geometry":{"coordinates":[-79.4833,37.6167],"type":"Point"},"properties":{"Data Access":"IMPROVE","ImNetworkID":"aphn","Site ID":174,"Site Code":"JEFF1","EPA Code":"511639001","Site Name":"Jefferson NF","Parameter":"Visibility","Elevation":219,"End Date":"2000-02-26T07:00:00.000Z","Start Date":"1994-09-03T06:00:00.000Z","State":"VA","State FIPS":"51","Active":0},"type":"Feature"},{"geometry":{"coordinates":[-116.3889,34.0695],"type":"Point"},"properties":{"Data Access":"IMPROVE","ImNetworkID":"modn","Site ID":175,"Site Code":"JOTR1","EPA Code":"060719002","Site Name":"Joshua Tree NP","Parameter":"Visibility","Elevation":1228,"End Date":"1999-12-29T07:00:00.000Z","Start Date":"1991-09-04T06:00:00.000Z","State":"CA","State FIPS":"06","Active":0},"type":"Feature"},{"geometry":{"coordinates":[-122.5586,48.9533],"type":"Point"},"properties":{"Data Access":"IMPROVE","ImNetworkID":"nccn","Site ID":176,"Site Code":"LYND1","EPA Code":"530730020","Site Name":"Lynden","Parameter":"Visibility","Elevation":28,"End Date":"1999-12-29T07:00:00.000Z","Start Date":"1996-10-16T06:00:00.000Z","State":"WA","State FIPS":"53","Active":0},"type":"Feature"},{"geometry":{"coordinates":[-155.5767,19.5362],"type":"Point"},"properties":{"Data Access":"IMPROVE","ImNetworkID":"pacn","Site ID":178,"Site Code":"MALO1","EPA Code":"150019000","Site Name":"Mauna Loa Observatory #1","Parameter":"Visibility","Elevation":3439,"End Date":"2004-08-28T06:00:00.000Z","Start Date":"1992-12-02T07:00:00.000Z","State":"HI","State FIPS":"15","Active":0},"type":"Feature"},{"geometry":{"coordinates":[-155.5767,19.5362],"type":"Point"},"properties":{"Data Access":"IMPROVE","ImNetworkID":"pacn","Site ID":179,"Site Code":"MALO2","EPA Code":"150019001","Site Name":"Mauna Loa Observatory #2","Parameter":"Visibility","Elevation":3439,"End Date":"2004-08-28T06:00:00.000Z","Start Date":"1992-12-02T07:00:00.000Z","State":"HI","State FIPS":"15","Active":0},"type":"Feature"},{"geometry":{"coordinates":[-155.578,19.5389],"type":"Point"},"properties":{"Data Access":"IMPROVE","ImNetworkID":"pacn","Site ID":180,"Site Code":"MALO3","EPA Code":"150019003","Site Name":"Mauna Loa Observatory #3","Parameter":"Visibility","Elevation":3400,"End Date":"2000-02-26T07:00:00.000Z","Start Date":"1996-03-06T07:00:00.000Z","State":"HI","State FIPS":"15","Active":0},"type":"Feature"},{"geometry":{"coordinates":[-155.578,19.5389],"type":"Point"},"properties":{"Data Access":"IMPROVE","ImNetworkID":"pacn","Site ID":181,"Site Code":"MALO4","EPA Code":"150019004","Site Name":"Mauna Loa Observatory #4","Parameter":"Visibility","Elevation":3400,"End Date":"2000-02-26T07:00:00.000Z","Start Date":"1996-03-02T07:00:00.000Z","State":"HI","State FIPS":"15","Active":0},"type":"Feature"},{"geometry":{"coordinates":[-105.5638,40.3624],"type":"Point"},"properties":{"Data Access":"IMPROVE","ImNetworkID":"romn","Site ID":182,"Site Code":"RMHQ1","EPA Code":"080699000","Site Name":"Rocky Mountain NP HQ","Parameter":"Visibility","Elevation":2408,"End Date":"1999-12-29T07:00:00.000Z","Start Date":"1988-03-02T07:00:00.000Z","State":"CO","State FIPS":"08","Active":0},"type":"Feature"},{"geometry":{"coordinates":[-106.4844,32.6869],"type":"Point"},"properties":{"Data Access":"IMPROVE","ImNetworkID":"chdn","Site ID":184,"Site Code":"SAAN1","EPA Code":"350139000","Site Name":"San Andres","Parameter":"Visibility","Elevation":1326,"End Date":"2000-02-26T07:00:00.000Z","Start Date":"1997-07-30T06:00:00.000Z","State":"NM","State FIPS":"35","Active":0},"type":"Feature"},{"geometry":{"coordinates":[-113.0333,43.65],"type":"Point"},"properties":{"Data Access":"IMPROVE","ImNetworkID":"ucbn","Site ID":185,"Site Code":"SCOV1","EPA Code":"160230003","Site Name":"Scoville","Parameter":"Visibility","Elevation":1500,"End Date":"2000-02-26T07:00:00.000Z","Start Date":"1992-03-04T07:00:00.000Z","State":"ID","State FIPS":"16","Active":0},"type":"Feature"},{"geometry":{"coordinates":[-119.9667,38.9333],"type":"Point"},"properties":{"Data Access":"IMPROVE","ImNetworkID":"sien","Site ID":186,"Site Code":"SOLA1","EPA Code":"060170008","Site Name":"South Lake Tahoe","Parameter":"Visibility","Elevation":1900,"End Date":"1999-12-29T07:00:00.000Z","Start Date":"1989-03-01T07:00:00.000Z","State":"CA","State FIPS":"06","Active":0},"type":"Feature"},{"geometry":{"coordinates":[-106.74,40.445],"type":"Point"},"properties":{"Data Access":"IMPROVE","ImNetworkID":"romn","Site ID":187,"Site Code":"STPE1","EPA Code":"081079000","Site Name":"Storm Peak","Parameter":"Visibility","Elevation":3220,"End Date":"1999-12-29T07:00:00.000Z","Start Date":"1993-12-01T07:00:00.000Z","State":"CO","State FIPS":"08","Active":0},"type":"Feature"},{"geometry":{"coordinates":[-92.8286,48.4126],"type":"Point"},"properties":{"Data Access":"IMPROVE","ImNetworkID":"glkn","Site ID":188,"Site Code":"VOYA2","EPA Code":"271379000","Site Name":"Voyageurs NP #2","Parameter":"Visibility","Elevation":429,"End Date":"2013-08-29T06:00:00.000Z","Start Date":"1988-03-02T07:00:00.000Z","State":"MN","State FIPS":"27","Active":1},"type":"Feature"},{"geometry":{"coordinates":[-110.4002,44.5653],"type":"Point"},"properties":{"Data Access":"IMPROVE","ImNetworkID":"gryn","Site ID":189,"Site Code":"YELL2","EPA Code":"560399000","Site Name":"Yellowstone NP 2","Parameter":"Visibility","Elevation":2425,"End Date":"2013-08-29T06:00:00.000Z","Start Date":"1988-03-02T07:00:00.000Z","State":"WY","State FIPS":"56","Active":1},"type":"Feature"},{"geometry":{"coordinates":[-72.0111,41.8408],"type":"Point"},"properties":{"Data Access":"CASTNet Ozone","ImNetworkID":"netn","Site ID":207,"Site Code":"ABT147","EPA Code":"090159991","Site Name":"Abington","Parameter":"Ozone","Elevation":209,"End Date":"2011-02-26T07:00:00.000Z","Start Date":"1994-01-01T07:00:00.000Z","State":"CT","State FIPS":"09","Active":0},"type":"Feature"},{"geometry":{"coordinates":[-68.261,44.377],"type":"Point"},"properties":{"Data Access":"CASTNet Ozone","ImNetworkID":"netn","Site ID":208,"Site Code":"ACA416","EPA Code":"230090103","Site Name":"Acadia NP","Parameter":"Ozone","Elevation":152,"End Date":"2011-02-26T07:00:00.000Z","Start Date":"1998-02-01T07:00:00.000Z","State":"ME","State FIPS":"23","Active":0},"type":"Feature"},{"geometry":{"coordinates":[-89.6219,38.8689],"type":"Point"},"properties":{"Data Access":"CASTNet Ozone","ImNetworkID":"htln","Site ID":209,"Site Code":"ALH157","EPA Code":"171199991","Site Name":"Alhambra","Parameter":"Ozone","Elevation":164,"End Date":"2011-02-26T07:00:00.000Z","Start Date":"1988-07-01T06:00:00.000Z","State":"IL","State FIPS":"17","Active":0},"type":"Feature"},{"geometry":{"coordinates":[-89.6219,38.8689],"type":"Point"},"properties":{"Data Access":"CASTNet Ozone","ImNetworkID":"htln","Site ID":210,"Site Code":"ALH257","EPA Code":"","Site Name":"Alhambra Collocated","Parameter":"Ozone","Elevation":164,"End Date":"1990-09-30T06:00:00.000Z","Start Date":"1989-04-01T07:00:00.000Z","State":"IL","State FIPS":"17","Active":0},"type":"Feature"},{"geometry":{"coordinates":[-83.9019,42.4164],"type":"Point"},"properties":{"Data Access":"CASTNet Ozone","ImNetworkID":"glkn","Site ID":212,"Site Code":"ANA115","EPA Code":"261619991","Site Name":"Ann Arbor","Parameter":"Ozone","Elevation":267,"End Date":"2011-02-26T07:00:00.000Z","Start Date":"1988-07-01T06:00:00.000Z","State":"MI","State FIPS":"26","Active":0},"type":"Feature"},{"geometry":{"coordinates":[-87.99,41.7],"type":"Point"},"properties":{"Data Access":"CASTNet Ozone","ImNetworkID":"glkn","Site ID":213,"Site Code":"ANL146","EPA Code":"","Site Name":"Argonne NL","Parameter":"Ozone","Elevation":229,"End Date":"1993-03-31T07:00:00.000Z","Start Date":"1987-07-01T06:00:00.000Z","State":"IL","State FIPS":"17","Active":0},"type":"Feature"},{"geometry":{"coordinates":[-77.3078,39.9231],"type":"Point"},"properties":{"Data Access":"CASTNet Ozone","ImNetworkID":"midn","Site ID":214,"Site Code":"ARE128","EPA Code":"420019991","Site Name":"Arendtsville","Parameter":"Ozone","Elevation":269,"End Date":"2011-02-26T07:00:00.000Z","Start Date":"1988-07-01T06:00:00.000Z","State":"PA","State FIPS":"42","Active":0},"type":"Feature"},{"geometry":{"coordinates":[-77.3078,39.9231],"type":"Point"},"properties":{"Data Access":"CASTNet Ozone","ImNetworkID":"midn","Site ID":215,"Site Code":"ARE228","EPA Code":"","Site Name":"Arendtsville Collocated","Parameter":"Ozone","Elevation":269,"End Date":"1995-05-31T06:00:00.000Z","Start Date":"1990-10-01T06:00:00.000Z","State":"PA","State FIPS":"42","Active":0},"type":"Feature"},{"geometry":{"coordinates":[-68.4142,46.6039],"type":"Point"},"properties":{"Data Access":"CASTNet Ozone","ImNetworkID":"netn","Site ID":217,"Site Code":"ASH135","EPA Code":"230039991","Site Name":"Ashland","Parameter":"Ozone","Elevation":235,"End Date":"2011-02-26T07:00:00.000Z","Start Date":"1989-01-01T07:00:00.000Z","State":"ME","State FIPS":"23","Active":0},"type":"Feature"},{"geometry":{"coordinates":[-68.4142,46.6039],"type":"Point"},"properties":{"Data Access":"CASTNet Ozone","ImNetworkID":"netn","Site ID":218,"Site Code":"ASH235","EPA Code":"","Site Name":"Ashland Collocated","Parameter":"Ozone","Elevation":235,"End Date":"2001-09-30T06:00:00.000Z","Start Date":"1995-09-01T06:00:00.000Z","State":"ME","State FIPS":"23","Active":0},"type":"Feature"},{"geometry":{"coordinates":[-103.177,29.31],"type":"Point"},"properties":{"Data Access":"CASTNet Ozone","ImNetworkID":"chdn","Site ID":219,"Site Code":"BBE401","EPA Code":"480430101","Site Name":"Big Bend NP","Parameter":"Ozone","Elevation":1052,"End Date":"2011-02-26T07:00:00.000Z","Start Date":"1995-07-01T06:00:00.000Z","State":"TX","State FIPS":"48","Active":0},"type":"Feature"},{"geometry":{"coordinates":[-76.8175,39.0283],"type":"Point"},"properties":{"Data Access":"CASTNet Ozone","ImNetworkID":"ncrn","Site ID":220,"Site Code":"BEL116","EPA Code":"240339991","Site Name":"Beltsville","Parameter":"Ozone","Elevation":46,"End Date":"2011-02-26T07:00:00.000Z","Start Date":"1989-01-01T07:00:00.000Z","State":"MD","State FIPS":"24","Active":0},"type":"Feature"},{"geometry":{"coordinates":[-76.6213,34.8843],"type":"Point"},"properties":{"Data Access":"CASTNet Ozone","ImNetworkID":"secn","Site ID":221,"Site Code":"BFT142","EPA Code":"370319991","Site Name":"Beaufort","Parameter":"Ozone","Elevation":2,"End Date":"2011-02-26T07:00:00.000Z","Start Date":"1994-01-01T07:00:00.000Z","State":"NC","State FIPS":"37","Active":0},"type":"Feature"},{"geometry":{"coordinates":[-88.3719,40.0514],"type":"Point"},"properties":{"Data Access":"CASTNet Ozone","ImNetworkID":"htln","Site ID":222,"Site Code":"BVL130","EPA Code":"170199991","Site Name":"Bondville","Parameter":"Ozone","Elevation":212,"End Date":"2011-02-26T07:00:00.000Z","Start Date":"1988-04-01T07:00:00.000Z","State":"IL","State FIPS":"17","Active":0},"type":"Feature"},{"geometry":{"coordinates":[-76.1115,38.4448],"type":"Point"},"properties":{"Data Access":"CASTNet Ozone","ImNetworkID":"ncbn","Site ID":224,"Site Code":"BWR139","EPA Code":"240199991","Site Name":"Blackwater NWR","Parameter":"Ozone","Elevation":4,"End Date":"2011-02-26T07:00:00.000Z","Start Date":"1995-07-01T06:00:00.000Z","State":"MD","State FIPS":"24","Active":0},"type":"Feature"},{"geometry":{"coordinates":[-93.0989,34.1792],"type":"Point"},"properties":{"Data Access":"CASTNet Ozone","ImNetworkID":"htln","Site ID":225,"Site Code":"CAD150","EPA Code":"050199991","Site Name":"Caddo Valley","Parameter":"Ozone","Elevation":71,"End Date":"2011-02-26T07:00:00.000Z","Start Date":"1988-10-01T06:00:00.000Z","State":"AR","State FIPS":"05","Active":0},"type":"Feature"},{"geometry":{"coordinates":[-109.821,38.458],"type":"Point"},"properties":{"Data Access":"CASTNet Ozone","ImNetworkID":"ncpn","Site ID":226,"Site Code":"CAN407","EPA Code":"490370101","Site Name":"Canyonlands NP","Parameter":"Ozone","Elevation":1814,"End Date":"2011-02-26T07:00:00.000Z","Start Date":"1995-01-01T07:00:00.000Z","State":"UT","State FIPS":"49","Active":0},"type":"Feature"},{"geometry":{"coordinates":[-74.5514,41.9411],"type":"Point"},"properties":{"Data Access":"CASTNet Ozone","ImNetworkID":"netn","Site ID":227,"Site Code":"CAT175","EPA Code":"","Site Name":"Claryville","Parameter":"Ozone","Elevation":765,"End Date":"2011-02-26T07:00:00.000Z","Start Date":"1994-05-01T06:00:00.000Z","State":"NY","State FIPS":"36","Active":0},"type":"Feature"},{"geometry":{"coordinates":[-80.8479,38.8794],"type":"Point"},"properties":{"Data Access":"CASTNet Ozone","ImNetworkID":"ermn","Site ID":228,"Site Code":"CDR119","EPA Code":"540219991","Site Name":"Cedar Creek","Parameter":"Ozone","Elevation":234,"End Date":"2011-02-26T07:00:00.000Z","Start Date":"1988-01-01T07:00:00.000Z","State":"WV","State FIPS":"54","Active":0},"type":"Feature"},{"geometry":{"coordinates":[-87.8504,36.7854],"type":"Point"},"properties":{"Data Access":"CASTNet Ozone","ImNetworkID":"cupn","Site ID":229,"Site Code":"CDZ171","EPA Code":"212219991","Site Name":"Cadiz","Parameter":"Ozone","Elevation":189,"End Date":"2011-02-26T07:00:00.000Z","Start Date":"1993-10-01T06:00:00.000Z","State":"KY","State FIPS":"21","Active":0},"type":"Feature"},{"geometry":{"coordinates":[-109.389,32.0097],"type":"Point"},"properties":{"Data Access":"CASTNet Ozone","ImNetworkID":"sodn","Site ID":231,"Site Code":"CHA267","EPA Code":"","Site Name":"Chiricahua NM Collocated","Parameter":"Ozone","Elevation":1570,"End Date":"1992-09-30T06:00:00.000Z","Start Date":"1989-07-01T06:00:00.000Z","State":"AZ","State FIPS":"04","Active":0},"type":"Feature"},{"geometry":{"coordinates":[-109.389,32.0097],"type":"Point"},"properties":{"Data Access":"CASTNet Ozone","ImNetworkID":"sodn","Site ID":232,"Site Code":"CHA467","EPA Code":"040038001","Site Name":"Chiricahua NM (NPS)","Parameter":"Ozone","Elevation":1570,"End Date":"2011-02-26T07:00:00.000Z","Start Date":"1989-07-01T06:00:00.000Z","State":"AZ","State FIPS":"04","Active":0},"type":"Feature"},{"geometry":{"coordinates":[-83.0658,37.9211],"type":"Point"},"properties":{"Data Access":"CASTNet Ozone","ImNetworkID":"cupn","Site ID":233,"Site Code":"CKT136","EPA Code":"211759991","Site Name":"Crockett","Parameter":"Ozone","Elevation":455,"End Date":"2011-02-26T07:00:00.000Z","Start Date":"1993-08-24T06:00:00.000Z","State":"KY","State FIPS":"21","Active":0},"type":"Feature"},{"geometry":{"coordinates":[-79.837,35.2637],"type":"Point"},"properties":{"Data Access":"CASTNet Ozone","ImNetworkID":"secn","Site ID":234,"Site Code":"CND125","EPA Code":"371239991","Site Name":"Candor","Parameter":"Ozone","Elevation":198,"End Date":"2011-02-26T07:00:00.000Z","Start Date":"1990-10-01T06:00:00.000Z","State":"NC","State FIPS":"37","Active":0},"type":"Feature"},{"geometry":{"coordinates":[-106.242,41.3722],"type":"Point"},"properties":{"Data Access":"CASTNet Ozone","ImNetworkID":"romn","Site ID":236,"Site Code":"CNT169","EPA Code":"560019991","Site Name":"Centennial","Parameter":"Ozone","Elevation":3178,"End Date":"2011-02-26T07:00:00.000Z","Start Date":"1989-07-01T06:00:00.000Z","State":"WY","State FIPS":"56","Active":0},"type":"Feature"},{"geometry":{"coordinates":[-83.4302,35.0605],"type":"Point"},"properties":{"Data Access":"CASTNet Ozone","ImNetworkID":"aphn","Site ID":237,"Site Code":"COW137","EPA Code":"371139991","Site Name":"Coweeta 137","Parameter":"Ozone","Elevation":686,"End Date":"2011-02-26T07:00:00.000Z","Start Date":"1988-01-01T07:00:00.000Z","State":"NC","State FIPS":"37","Active":0},"type":"Feature"},{"geometry":{"coordinates":[-76.6536,42.4011],"type":"Point"},"properties":{"Data Access":"CASTNet Ozone","ImNetworkID":"ermn","Site ID":239,"Site Code":"CTH110","EPA Code":"361099991","Site Name":"Connecticut Hill","Parameter":"Ozone","Elevation":501,"End Date":"2011-02-26T07:00:00.000Z","Start Date":"1987-10-01T06:00:00.000Z","State":"NY","State FIPS":"36","Active":0},"type":"Feature"},{"geometry":{"coordinates":[-89.7989,34.0028],"type":"Point"},"properties":{"Data Access":"CASTNet Ozone","ImNetworkID":"guln","Site ID":241,"Site Code":"CVL151","EPA Code":"281619991","Site Name":"Coffeeville","Parameter":"Ozone","Elevation":134,"End Date":"2011-02-26T07:00:00.000Z","Start Date":"1989-01-01T07:00:00.000Z","State":"MS","State FIPS":"28","Active":0},"type":"Feature"},{"geometry":{"coordinates":[-83.258,39.6358],"type":"Point"},"properties":{"Data Access":"CASTNet Ozone","ImNetworkID":"htln","Site ID":242,"Site Code":"DCP114","EPA Code":"390479991","Site Name":"Deer Creek","Parameter":"Ozone","Elevation":267,"End Date":"2011-02-26T07:00:00.000Z","Start Date":"1988-10-01T06:00:00.000Z","State":"OH","State FIPS":"39","Active":0},"type":"Feature"},{"geometry":{"coordinates":[-83.258,39.6358],"type":"Point"},"properties":{"Data Access":"CASTNet Ozone","ImNetworkID":"htln","Site ID":243,"Site Code":"DCP214","EPA Code":"","Site Name":"Deer Creek Collocated","Parameter":"Ozone","Elevation":267,"End Date":"1992-09-30T06:00:00.000Z","Start Date":"1990-10-01T06:00:00.000Z","State":"OH","State FIPS":"39","Active":0},"type":"Feature"},{"geometry":{"coordinates":[-148.968,63.723],"type":"Point"},"properties":{"Data Access":"CASTNet Ozone","ImNetworkID":"cakn","Site ID":244,"Site Code":"DEN417","EPA Code":"020680003","Site Name":"Denali NP","Parameter":"Ozone","Elevation":661,"End Date":"2011-02-26T07:00:00.000Z","Start Date":"1998-01-01T07:00:00.000Z","State":"AK","State FIPS":"02","Active":0},"type":"Feature"},{"geometry":{"coordinates":[-116.838,36.508],"type":"Point"},"properties":{"Data Access":"CASTNet Ozone","ImNetworkID":"modn","Site ID":245,"Site Code":"DEV412","EPA Code":"","Site Name":"Death Valley NM","Parameter":"Ozone","Elevation":125,"End Date":"2008-05-11T06:00:00.000Z","Start Date":"1995-01-01T07:00:00.000Z","State":"CA","State FIPS":"06","Active":0},"type":"Feature"},{"geometry":{"coordinates":[-85.734,36.0393],"type":"Point"},"properties":{"Data Access":"CASTNet Ozone","ImNetworkID":"cupn","Site ID":247,"Site Code":"ESP127","EPA Code":"470419991","Site Name":"Edgar Evins","Parameter":"Ozone","Elevation":302,"End Date":"2011-02-26T07:00:00.000Z","Start Date":"1988-07-01T06:00:00.000Z","State":"TN","State FIPS":"47","Active":0},"type":"Feature"},{"geometry":{"coordinates":[-80.683,25.388],"type":"Point"},"properties":{"Data Access":"CASTNet Ozone","ImNetworkID":"sfcn","Site ID":248,"Site Code":"EVE419","EPA Code":"","Site Name":"Everglades NP","Parameter":"Ozone","Elevation":2,"End Date":"2011-02-26T07:00:00.000Z","Start Date":"1998-01-01T07:00:00.000Z","State":"FL","State FIPS":"12","Active":0},"type":"Feature"},{"geometry":{"coordinates":[-84.4053,33.1792],"type":"Point"},"properties":{"Data Access":"CASTNet Ozone","ImNetworkID":"secn","Site ID":249,"Site Code":"GAS153","EPA Code":"132319991","Site Name":"Georgia Station","Parameter":"Ozone","Elevation":270,"End Date":"2011-02-26T07:00:00.000Z","Start Date":"1988-07-01T06:00:00.000Z","State":"GA","State FIPS":"13","Active":0},"type":"Feature"},{"geometry":{"coordinates":[-84.4053,33.1792],"type":"Point"},"properties":{"Data Access":"CASTNet Ozone","ImNetworkID":"secn","Site ID":250,"Site Code":"GAS253","EPA Code":"","Site Name":"Georgia Station Collocated","Parameter":"Ozone","Elevation":270,"End Date":"1990-09-30T06:00:00.000Z","Start Date":"1989-04-01T07:00:00.000Z","State":"GA","State FIPS":"13","Active":0},"type":"Feature"},{"geometry":{"coordinates":[-113.995,48.51],"type":"Point"},"properties":{"Data Access":"CASTNet Ozone","ImNetworkID":"romn","Site ID":252,"Site Code":"GLR468","EPA Code":"300298001","Site Name":"Glacier NP NPS","Parameter":"Ozone","Elevation":976,"End Date":"2011-02-26T07:00:00.000Z","Start Date":"1989-04-01T07:00:00.000Z","State":"MT","State FIPS":"30","Active":0},"type":"Feature"},{"geometry":{"coordinates":[-114.215,39.005],"type":"Point"},"properties":{"Data Access":"CASTNet Ozone","ImNetworkID":"modn","Site ID":254,"Site Code":"GRB411","EPA Code":"320330101","Site Name":"Great Basin NP","Parameter":"Ozone","Elevation":2060,"End Date":"2011-02-26T07:00:00.000Z","Start Date":"1995-04-01T07:00:00.000Z","State":"NV","State FIPS":"32","Active":0},"type":"Feature"},{"geometry":{"coordinates":[-112.182,36.059],"type":"Point"},"properties":{"Data Access":"CASTNet Ozone","ImNetworkID":"scpn","Site ID":255,"Site Code":"GRC474","EPA Code":"040058001","Site Name":"Grand Canyon NP (NPS)","Parameter":"Ozone","Elevation":2073,"End Date":"2011-02-26T07:00:00.000Z","Start Date":"1989-07-01T06:00:00.000Z","State":"AZ","State FIPS":"04","Active":0},"type":"Feature"},{"geometry":{"coordinates":[-83.942,35.631],"type":"Point"},"properties":{"Data Access":"CASTNet Ozone","ImNetworkID":"aphn","Site ID":256,"Site Code":"GRS420","EPA Code":"470090101","Site Name":"Great Smoky NP - Look Rock","Parameter":"Ozone","Elevation":793,"End Date":"2011-02-26T07:00:00.000Z","Start Date":"1998-01-01T07:00:00.000Z","State":"TN","State FIPS":"47","Active":0},"type":"Feature"},{"geometry":{"coordinates":[-106.985,38.9573],"type":"Point"},"properties":{"Data Access":"CASTNet Ozone","ImNetworkID":"ncpn","Site ID":257,"Site Code":"GTH161","EPA Code":"080519991","Site Name":"Gothic","Parameter":"Ozone","Elevation":2926,"End Date":"2011-02-26T07:00:00.000Z","Start Date":"1989-07-01T06:00:00.000Z","State":"CO","State FIPS":"08","Active":0},"type":"Feature"},{"geometry":{"coordinates":[-68.7092,45.2161],"type":"Point"},"properties":{"Data Access":"CASTNet Ozone","ImNetworkID":"netn","Site ID":259,"Site Code":"HOW132","EPA Code":"230199991","Site Name":"Howland","Parameter":"Ozone","Elevation":69,"End Date":"2011-02-26T07:00:00.000Z","Start Date":"1993-01-01T07:00:00.000Z","State":"ME","State FIPS":"23","Active":0},"type":"Feature"},{"geometry":{"coordinates":[-155.3,19.4472],"type":"Point"},"properties":{"Data Access":"CASTNet Ozone","ImNetworkID":"pacn","Site ID":261,"Site Code":"HVT424","EPA Code":"","Site Name":"Hawaii Volcanoes NP","Parameter":"Ozone","Elevation":1199,"End Date":"2004-06-30T06:00:00.000Z","Start Date":"1999-09-01T06:00:00.000Z","State":"HI","State FIPS":"15","Active":0},"type":"Feature"},{"geometry":{"coordinates":[-116.39,34.071],"type":"Point"},"properties":{"Data Access":"CASTNet Ozone","ImNetworkID":"modn","Site ID":262,"Site Code":"JOT403","EPA Code":"060719002","Site Name":"Joshua Tree NM","Parameter":"Ozone","Elevation":1244,"End Date":"2011-02-26T07:00:00.000Z","Start Date":"1995-02-01T07:00:00.000Z","State":"CA","State FIPS":"06","Active":0},"type":"Feature"},{"geometry":{"coordinates":[-78.7683,41.5981],"type":"Point"},"properties":{"Data Access":"CASTNet Ozone","ImNetworkID":"ermn","Site ID":263,"Site Code":"KEF112","EPA Code":"420479991","Site Name":"Kane Exp. Forest","Parameter":"Ozone","Elevation":622,"End Date":"2011-02-26T07:00:00.000Z","Start Date":"1989-01-01T07:00:00.000Z","State":"PA","State FIPS":"42","Active":0},"type":"Feature"},{"geometry":{"coordinates":[-121.572,40.536],"type":"Point"},"properties":{"Data Access":"CASTNet Ozone","ImNetworkID":"klmn","Site ID":264,"Site Code":"LAV410","EPA Code":"060893003","Site Name":"Lassen Volcanic NP","Parameter":"Ozone","Elevation":1756,"End Date":"2011-02-26T07:00:00.000Z","Start Date":"1995-07-01T06:00:00.000Z","State":"CA","State FIPS":"06","Active":0},"type":"Feature"},{"geometry":{"coordinates":[-82.99,37.13],"type":"Point"},"properties":{"Data Access":"CASTNet Ozone","ImNetworkID":"cupn","Site ID":265,"Site Code":"LCW121","EPA Code":"","Site Name":"Lilley C. Woods","Parameter":"Ozone","Elevation":335,"End Date":"1993-12-31T07:00:00.000Z","Start Date":"1988-04-01T07:00:00.000Z","State":"KY","State FIPS":"21","Active":0},"type":"Feature"},{"geometry":{"coordinates":[-79.2522,39.9883],"type":"Point"},"properties":{"Data Access":"CASTNet Ozone","ImNetworkID":"ermn","Site ID":268,"Site Code":"LRL117","EPA Code":"421119991","Site Name":"Laurel Hill","Parameter":"Ozone","Elevation":615,"End Date":"2011-02-26T07:00:00.000Z","Start Date":"1988-01-01T07:00:00.000Z","State":"PA","State FIPS":"42","Active":0},"type":"Feature"},{"geometry":{"coordinates":[-73.0634,43.0504],"type":"Point"},"properties":{"Data Access":"CASTNet Ozone","ImNetworkID":"netn","Site ID":269,"Site Code":"LYE145","EPA Code":"","Site Name":"Lye Brook","Parameter":"Ozone","Elevation":730,"End Date":"2007-07-15T06:00:00.000Z","Start Date":"1994-01-01T07:00:00.000Z","State":"VT","State FIPS":"50","Active":0},"type":"Feature"},{"geometry":{"coordinates":[-82.9981,40.9169],"type":"Point"},"properties":{"Data Access":"CASTNet Ozone","ImNetworkID":"htln","Site ID":270,"Site Code":"LYK123","EPA Code":"","Site Name":"Lykens","Parameter":"Ozone","Elevation":303,"End Date":"2010-10-13T06:00:00.000Z","Start Date":"1988-12-01T07:00:00.000Z","State":"OH","State FIPS":"39","Active":0},"type":"Feature"},{"geometry":{"coordinates":[-85.0483,37.7044],"type":"Point"},"properties":{"Data Access":"CASTNet Ozone","ImNetworkID":"cupn","Site ID":271,"Site Code":"MCK131","EPA Code":"212299991","Site Name":"Mackville","Parameter":"Ozone","Elevation":353,"End Date":"2011-02-26T07:00:00.000Z","Start Date":"1990-08-01T06:00:00.000Z","State":"KY","State FIPS":"21","Active":0},"type":"Feature"},{"geometry":{"coordinates":[-85.0483,37.7044],"type":"Point"},"properties":{"Data Access":"CASTNet Ozone","ImNetworkID":"cupn","Site ID":272,"Site Code":"MCK231","EPA Code":"212299991","Site Name":"Mackville Collocated","Parameter":"Ozone","Elevation":353,"End Date":"2011-02-26T07:00:00.000Z","Start Date":"1993-01-01T07:00:00.000Z","State":"KY","State FIPS":"21","Active":0},"type":"Feature"},{"geometry":{"coordinates":[-108.49,37.198],"type":"Point"},"properties":{"Data Access":"CASTNet Ozone","ImNetworkID":"scpn","Site ID":273,"Site Code":"MEV405","EPA Code":"080830101","Site Name":"Mesa Verde NP","Parameter":"Ozone","Elevation":2165,"End Date":"2011-02-26T07:00:00.000Z","Start Date":"1995-01-01T07:00:00.000Z","State":"CO","State FIPS":"08","Active":0},"type":"Feature"},{"geometry":{"coordinates":[-80.1447,41.425],"type":"Point"},"properties":{"Data Access":"CASTNet Ozone","ImNetworkID":"ermn","Site ID":274,"Site Code":"MKG113","EPA Code":"420859991","Site Name":"M.K. Goddard","Parameter":"Ozone","Elevation":384,"End Date":"2011-02-26T07:00:00.000Z","Start Date":"1988-04-01T07:00:00.000Z","State":"PA","State FIPS":"42","Active":0},"type":"Feature"},{"geometry":{"coordinates":[-122.121,46.761],"type":"Point"},"properties":{"Data Access":"CASTNet Ozone","ImNetworkID":"nccn","Site ID":276,"Site Code":"MOR409","EPA Code":"530531010","Site Name":"Mount Rainier NP","Parameter":"Ozone","Elevation":421,"End Date":"2011-02-26T07:00:00.000Z","Start Date":"1995-08-01T06:00:00.000Z","State":"WA","State FIPS":"53","Active":0},"type":"Feature"},{"geometry":{"coordinates":[-121.446,48.539],"type":"Point"},"properties":{"Data Access":"CASTNet Ozone","ImNetworkID":"nccn","Site ID":277,"Site Code":"NCS415","EPA Code":"","Site Name":"North Cascades NP","Parameter":"Ozone","Elevation":109,"End Date":"2008-05-11T06:00:00.000Z","Start Date":"1996-02-01T07:00:00.000Z","State":"WA","State FIPS":"53","Active":0},"type":"Feature"},{"geometry":{"coordinates":[-123.426,48.098],"type":"Point"},"properties":{"Data Access":"CASTNet Ozone","ImNetworkID":"nccn","Site ID":278,"Site Code":"OLY421","EPA Code":"","Site Name":"Olympic NP","Parameter":"Ozone","Elevation":125,"End Date":"2005-02-28T07:00:00.000Z","Start Date":"1998-11-01T07:00:00.000Z","State":"WA","State FIPS":"53","Active":0},"type":"Feature"},{"geometry":{"coordinates":[-84.29,35.96],"type":"Point"},"properties":{"Data Access":"CASTNet Ozone","ImNetworkID":"aphn","Site ID":279,"Site Code":"ONL102","EPA Code":"","Site Name":"Oak Ridge","Parameter":"Ozone","Elevation":null,"End Date":"1988-12-31T07:00:00.000Z","Start Date":"1987-01-01T07:00:00.000Z","State":"TN","State FIPS":"47","Active":0},"type":"Feature"},{"geometry":{"coordinates":[-84.7231,39.5314],"type":"Point"},"properties":{"Data Access":"CASTNet Ozone","ImNetworkID":"htln","Site ID":280,"Site Code":"OXF122","EPA Code":"390179991","Site Name":"Oxford","Parameter":"Ozone","Elevation":284,"End Date":"2011-02-26T07:00:00.000Z","Start Date":"1987-10-01T06:00:00.000Z","State":"OH","State FIPS":"39","Active":0},"type":"Feature"},{"geometry":{"coordinates":[-79.6614,39.0906],"type":"Point"},"properties":{"Data Access":"CASTNet Ozone","ImNetworkID":"ermn","Site ID":281,"Site Code":"PAR107","EPA Code":"540939991","Site Name":"Parsons","Parameter":"Ozone","Elevation":510,"End Date":"2011-02-26T07:00:00.000Z","Start Date":"1988-04-01T07:00:00.000Z","State":"WV","State FIPS":"54","Active":0},"type":"Feature"},{"geometry":{"coordinates":[-79.6614,39.0906],"type":"Point"},"properties":{"Data Access":"CASTNet Ozone","ImNetworkID":"ermn","Site ID":282,"Site Code":"PAR207","EPA Code":"","Site Name":"Parsons Collocated","Parameter":"Ozone","Elevation":510,"End Date":"1990-09-30T06:00:00.000Z","Start Date":"1989-04-01T07:00:00.000Z","State":"WV","State FIPS":"54","Active":0},"type":"Feature"},{"geometry":{"coordinates":[-84.97,37.68],"type":"Point"},"properties":{"Data Access":"CASTNet Ozone","ImNetworkID":"cupn","Site ID":283,"Site Code":"PBF129","EPA Code":"","Site Name":"Perryville","Parameter":"Ozone","Elevation":279,"End Date":"1990-06-30T06:00:00.000Z","Start Date":"1987-10-01T06:00:00.000Z","State":"KY","State FIPS":"21","Active":0},"type":"Feature"},{"geometry":{"coordinates":[-78.3068,37.1658],"type":"Point"},"properties":{"Data Access":"CASTNet Ozone","ImNetworkID":"midn","Site ID":284,"Site Code":"PED108","EPA Code":"511479991","Site Name":"Prince Edward","Parameter":"Ozone","Elevation":150,"End Date":"2011-02-26T07:00:00.000Z","Start Date":"1988-01-01T07:00:00.000Z","State":"VA","State FIPS":"51","Active":0},"type":"Feature"},{"geometry":{"coordinates":[-121.155,36.485],"type":"Point"},"properties":{"Data Access":"CASTNet Ozone","ImNetworkID":"sfan","Site ID":285,"Site Code":"PIN414","EPA Code":"060690003","Site Name":"Pinnacles NM","Parameter":"Ozone","Elevation":335,"End Date":"2011-02-26T07:00:00.000Z","Start Date":"1995-05-01T06:00:00.000Z","State":"CA","State FIPS":"06","Active":0},"type":"Feature"},{"geometry":{"coordinates":[-109.787,42.9214],"type":"Point"},"properties":{"Data Access":"CASTNet Ozone","ImNetworkID":"gryn","Site ID":286,"Site Code":"PND165","EPA Code":"560359991","Site Name":"Pinedale","Parameter":"Ozone","Elevation":2388,"End Date":"2011-02-26T07:00:00.000Z","Start Date":"1989-01-01T07:00:00.000Z","State":"WY","State FIPS":"56","Active":0},"type":"Feature"},{"geometry":{"coordinates":[-82.0448,36.104],"type":"Point"},"properties":{"Data Access":"CASTNet Ozone","ImNetworkID":"aphn","Site ID":287,"Site Code":"PNF126","EPA Code":"370119991","Site Name":"Cranberry","Parameter":"Ozone","Elevation":1219,"End Date":"2011-02-26T07:00:00.000Z","Start Date":"1989-01-01T07:00:00.000Z","State":"NC","State FIPS":"37","Active":0},"type":"Feature"},{"geometry":{"coordinates":[-90.5978,45.2064],"type":"Point"},"properties":{"Data Access":"CASTNet Ozone","ImNetworkID":"glkn","Site ID":288,"Site Code":"PRK134","EPA Code":"551199991","Site Name":"Perkinstown","Parameter":"Ozone","Elevation":472,"End Date":"2011-02-26T07:00:00.000Z","Start Date":"1988-10-01T06:00:00.000Z","State":"WI","State FIPS":"55","Active":0},"type":"Feature"},{"geometry":{"coordinates":[-77.9319,40.7208],"type":"Point"},"properties":{"Data Access":"CASTNet Ozone","ImNetworkID":"ermn","Site ID":289,"Site Code":"PSU106","EPA Code":"420279991","Site Name":"Penn State","Parameter":"Ozone","Elevation":378,"End Date":"2011-02-26T07:00:00.000Z","Start Date":"1987-01-01T07:00:00.000Z","State":"PA","State FIPS":"42","Active":0},"type":"Feature"},{"geometry":{"coordinates":[-81.3378,39.9431],"type":"Point"},"properties":{"Data Access":"CASTNet Ozone","ImNetworkID":"htln","Site ID":290,"Site Code":"QAK172","EPA Code":"391219991","Site Name":"Quaker City","Parameter":"Ozone","Elevation":372,"End Date":"2011-02-26T07:00:00.000Z","Start Date":"1993-10-01T06:00:00.000Z","State":"OH","State FIPS":"39","Active":0},"type":"Feature"},{"geometry":{"coordinates":[-116.75,43.21],"type":"Point"},"properties":{"Data Access":"CASTNet Ozone","ImNetworkID":"ucbn","Site ID":293,"Site Code":"RCK163","EPA Code":"","Site Name":"Reynolds Creek","Parameter":"Ozone","Elevation":1198,"End Date":"1993-09-30T06:00:00.000Z","Start Date":"1989-07-01T06:00:00.000Z","State":"ID","State FIPS":"16","Active":0},"type":"Feature"},{"geometry":{"coordinates":[-116.75,43.21],"type":"Point"},"properties":{"Data Access":"CASTNet Ozone","ImNetworkID":"ucbn","Site ID":294,"Site Code":"RCK263","EPA Code":"","Site Name":"Reynolds Creek Collocated","Parameter":"Ozone","Elevation":1198,"End Date":"1992-12-31T07:00:00.000Z","Start Date":"1990-10-01T06:00:00.000Z","State":"ID","State FIPS":"16","Active":0},"type":"Feature"},{"geometry":{"coordinates":[-105.545,40.277],"type":"Point"},"properties":{"Data Access":"CASTNet Ozone","ImNetworkID":"romn","Site ID":295,"Site Code":"ROM406","EPA Code":"080690007","Site Name":"Rocky Mtn NP","Parameter":"Ozone","Elevation":2743,"End Date":"2011-02-26T07:00:00.000Z","Start Date":"1994-10-01T06:00:00.000Z","State":"CO","State FIPS":"08","Active":0},"type":"Feature"},{"geometry":{"coordinates":[-78.88,35.91],"type":"Point"},"properties":{"Data Access":"CASTNet Ozone","ImNetworkID":"secn","Site ID":296,"Site Code":"RTP101","EPA Code":"","Site Name":"Res. Triangle Pk.","Parameter":"Ozone","Elevation":null,"End Date":"2006-11-28T07:00:00.000Z","Start Date":"1987-01-01T07:00:00.000Z","State":"NC","State FIPS":"37","Active":0},"type":"Feature"},{"geometry":{"coordinates":[-85.6608,40.8164],"type":"Point"},"properties":{"Data Access":"CASTNet Ozone","ImNetworkID":"htln","Site ID":297,"Site Code":"SAL133","EPA Code":"181699991","Site Name":"Salamonie Reservoir","Parameter":"Ozone","Elevation":250,"End Date":"2011-02-26T07:00:00.000Z","Start Date":"1988-10-01T06:00:00.000Z","State":"IN","State FIPS":"18","Active":0},"type":"Feature"},{"geometry":{"coordinates":[-115.86,41.29],"type":"Point"},"properties":{"Data Access":"CASTNet Ozone","ImNetworkID":"ucbn","Site ID":298,"Site Code":"SAV164","EPA Code":"","Site Name":"Saval Ranch","Parameter":"Ozone","Elevation":1873,"End Date":"1993-09-30T06:00:00.000Z","Start Date":"1989-07-01T06:00:00.000Z","State":"NV","State FIPS":"32","Active":0},"type":"Feature"},{"geometry":{"coordinates":[-118.762,36.429],"type":"Point"},"properties":{"Data Access":"CASTNet Ozone","ImNetworkID":"sien","Site ID":300,"Site Code":"SEK402","EPA Code":"","Site Name":"Sequoia NP - Lookout Pt","Parameter":"Ozone","Elevation":1225,"End Date":"2004-12-31T07:00:00.000Z","Start Date":"1997-02-01T07:00:00.000Z","State":"CA","State FIPS":"06","Active":0},"type":"Feature"},{"geometry":{"coordinates":[-78.4364,38.5234],"type":"Point"},"properties":{"Data Access":"CASTNet Ozone","ImNetworkID":"midn","Site ID":302,"Site Code":"SHN418","EPA Code":"511130003","Site Name":"Shenandoah NP - Big Meadows NPS","Parameter":"Ozone","Elevation":1073,"End Date":"2011-02-26T07:00:00.000Z","Start Date":"1988-07-01T06:00:00.000Z","State":"VA","State FIPS":"51","Active":0},"type":"Feature"},{"geometry":{"coordinates":[-85.9704,34.2894],"type":"Point"},