{"type":"FeatureCollection","features":[{"geometry":{"coordinates":[-68.261,44.3771],"type":"Point"},"properties":{"Site Name":"Acadia NP","Parameter":"Visibility","ImNetworkID":14,"ElevationMSL":null,"End Date":"2013-08-29T06:00:00.000Z","EPA Code":"230090103","Site Code":"ACAD1","Site ID":1,"Start Date":"1988-03-02T07:00:00.000Z","State":"ME","State FIPS":"23","Active":1},"type":"Feature"},{"geometry":{"coordinates":[-67.2661,45.1259],"type":"Point"},"properties":{"Site Name":"Moosehorn NWR","Parameter":"Visibility","ImNetworkID":14,"ElevationMSL":null,"End Date":"2013-08-29T06:00:00.000Z","EPA Code":"230291004","Site Code":"MOOS1","Site ID":2,"Start Date":"1994-12-03T07:00:00.000Z","State":"ME","State FIPS":"23","Active":1},"type":"Feature"},{"geometry":{"coordinates":[-73.1268,43.1482],"type":"Point"},"properties":{"Site Name":"Lye Brook Wilderness","Parameter":"Visibility","ImNetworkID":14,"ElevationMSL":null,"End Date":"2012-09-30T06:00:00.000Z","EPA Code":"500038001","Site Code":"LYBR1","Site ID":3,"Start Date":"1991-09-04T06:00:00.000Z","State":"VT","State FIPS":"50","Active":0},"type":"Feature"},{"geometry":{"coordinates":[-71.2177,44.3082],"type":"Point"},"properties":{"Site Name":"Great Gulf Wilderness","Parameter":"Visibility","ImNetworkID":14,"ElevationMSL":null,"End Date":"2013-08-29T06:00:00.000Z","EPA Code":"330074002","Site Code":"GRGU1","Site ID":4,"Start Date":"1995-06-03T06:00:00.000Z","State":"NH","State FIPS":"33","Active":1},"type":"Feature"},{"geometry":{"coordinates":[-74.4492,39.465],"type":"Point"},"properties":{"Site Name":"Brigantine NWR","Parameter":"Visibility","ImNetworkID":2,"ElevationMSL":null,"End Date":"2013-08-29T06:00:00.000Z","EPA Code":"340019000","Site Code":"BRIG1","Site ID":5,"Start Date":"1991-09-04T06:00:00.000Z","State":"NJ","State FIPS":"34","Active":1},"type":"Feature"},{"geometry":{"coordinates":[-78.4348,38.5229],"type":"Point"},"properties":{"Site Name":"Shenandoah NP","Parameter":"Visibility","ImNetworkID":30,"ElevationMSL":null,"End Date":"2013-08-29T06:00:00.000Z","EPA Code":"511139000","Site Code":"SHEN1","Site ID":6,"Start Date":"1988-03-02T07:00:00.000Z","State":"VA","State FIPS":"51","Active":1},"type":"Feature"},{"geometry":{"coordinates":[-79.5125,37.6266],"type":"Point"},"properties":{"Site Name":"James River Face Wilderness","Parameter":"Visibility","ImNetworkID":11,"ElevationMSL":null,"End Date":"2013-08-29T06:00:00.000Z","EPA Code":"511639000","Site Code":"JARI1","Site ID":7,"Start Date":"2000-06-03T06:00:00.000Z","State":"VA","State FIPS":"51","Active":1},"type":"Feature"},{"geometry":{"coordinates":[-79.4261,39.1053],"type":"Point"},"properties":{"Site Name":"Dolly Sods Wilderness","Parameter":"Visibility","ImNetworkID":30,"ElevationMSL":null,"End Date":"2013-08-29T06:00:00.000Z","EPA Code":"540939000","Site Code":"DOSO1","Site ID":8,"Start Date":"1991-09-04T06:00:00.000Z","State":"WV","State FIPS":"54","Active":1},"type":"Feature"},{"geometry":{"coordinates":[-86.1479,37.1318],"type":"Point"},"properties":{"Site Name":"Mammoth Cave NP","Parameter":"Visibility","ImNetworkID":5,"ElevationMSL":null,"End Date":"2013-08-29T06:00:00.000Z","EPA Code":"210619000","Site Code":"MACA1","Site ID":9,"Start Date":"1991-09-04T06:00:00.000Z","State":"KY","State FIPS":"21","Active":1},"type":"Feature"},{"geometry":{"coordinates":[-83.9416,35.6334],"type":"Point"},"properties":{"Site Name":"Great Smoky Mountains NP","Parameter":"Visibility","ImNetworkID":11,"ElevationMSL":null,"End Date":"2013-08-29T06:00:00.000Z","EPA Code":"470090101","Site Code":"GRSM1","Site ID":10,"Start Date":"1988-03-02T07:00:00.000Z","State":"TN","State FIPS":"47","Active":1},"type":"Feature"},{"geometry":{"coordinates":[-82.7744,35.3937],"type":"Point"},"properties":{"Site Name":"Shining Rock Wilderness","Parameter":"Visibility","ImNetworkID":11,"ElevationMSL":null,"End Date":"2013-08-29T06:00:00.000Z","EPA Code":"370870035","Site Code":"SHRO1","Site ID":11,"Start Date":"1994-06-01T06:00:00.000Z","State":"NC","State FIPS":"37","Active":1},"type":"Feature"},{"geometry":{"coordinates":[-84.6265,34.7852],"type":"Point"},"properties":{"Site Name":"Cohutta","Parameter":"Visibility","ImNetworkID":5,"ElevationMSL":null,"End Date":"2013-08-29T06:00:00.000Z","EPA Code":"132139000","Site Code":"COHU1","Site ID":12,"Start Date":"2000-06-03T06:00:00.000Z","State":"GA","State FIPS":"13","Active":1},"type":"Feature"},{"geometry":{"coordinates":[-81.9331,35.9723],"type":"Point"},"properties":{"Site Name":"Linville Gorge","Parameter":"Visibility","ImNetworkID":11,"ElevationMSL":null,"End Date":"2013-08-29T06:00:00.000Z","EPA Code":"370110002","Site Code":"LIGO1","Site ID":13,"Start Date":"2000-04-01T07:00:00.000Z","State":"NC","State FIPS":"37","Active":1},"type":"Feature"},{"geometry":{"coordinates":[-76.2075,35.451],"type":"Point"},"properties":{"Site Name":"Swanquarter","Parameter":"Visibility","ImNetworkID":24,"ElevationMSL":null,"End Date":"2013-08-29T06:00:00.000Z","EPA Code":"370959000","Site Code":"SWAN1","Site ID":14,"Start Date":"2000-06-10T06:00:00.000Z","State":"NC","State FIPS":"37","Active":1},"type":"Feature"},{"geometry":{"coordinates":[-79.6572,32.941],"type":"Point"},"properties":{"Site Name":"Cape Romain NWR","Parameter":"Visibility","ImNetworkID":24,"ElevationMSL":null,"End Date":"2013-08-29T06:00:00.000Z","EPA Code":"450190046","Site Code":"ROMA1","Site ID":15,"Start Date":"1994-09-03T06:00:00.000Z","State":"SC","State FIPS":"45","Active":1},"type":"Feature"},{"geometry":{"coordinates":[-82.1283,30.7405],"type":"Point"},"properties":{"Site Name":"Okefenokee NWR","Parameter":"Visibility","ImNetworkID":24,"ElevationMSL":null,"End Date":"2013-08-29T06:00:00.000Z","EPA Code":"130499000","Site Code":"OKEF1","Site ID":16,"Start Date":"1991-09-04T06:00:00.000Z","State":"GA","State FIPS":"13","Active":1},"type":"Feature"},{"geometry":{"coordinates":[-84.1614,30.0926],"type":"Point"},"properties":{"Site Name":"St. Marks","Parameter":"Visibility","ImNetworkID":18,"ElevationMSL":null,"End Date":"2013-08-29T06:00:00.000Z","EPA Code":"121290001","Site Code":"SAMA1","Site ID":17,"Start Date":"2000-08-16T06:00:00.000Z","State":"FL","State FIPS":"12","Active":1},"type":"Feature"},{"geometry":{"coordinates":[-82.5549,28.7484],"type":"Point"},"properties":{"Site Name":"Chassahowitzka NWR","Parameter":"Visibility","ImNetworkID":18,"ElevationMSL":null,"End Date":"2013-08-29T06:00:00.000Z","EPA Code":"120179000","Site Code":"CHAS1","Site ID":18,"Start Date":"1993-03-03T07:00:00.000Z","State":"FL","State FIPS":"12","Active":1},"type":"Feature"},{"geometry":{"coordinates":[-80.6806,25.391],"type":"Point"},"properties":{"Site Name":"Everglades NP","Parameter":"Visibility","ImNetworkID":28,"ElevationMSL":null,"End Date":"2013-08-29T06:00:00.000Z","EPA Code":"120860030","Site Code":"EVER1","Site ID":19,"Start Date":"1988-09-03T06:00:00.000Z","State":"FL","State FIPS":"12","Active":1},"type":"Feature"},{"geometry":{"coordinates":[-89.2066,29.1189],"type":"Point"},"properties":{"Site Name":"Breton","Parameter":"Visibility","ImNetworkID":18,"ElevationMSL":null,"End Date":"2005-08-29T06:00:00.000Z","EPA Code":"220759000","Site Code":"BRET1","Site ID":20,"Start Date":"2000-08-16T06:00:00.000Z","State":"LA","State FIPS":"22","Active":0},"type":"Feature"},{"geometry":{"coordinates":[-87.3388,34.3433],"type":"Point"},"properties":{"Site Name":"Sipsey Wilderness","Parameter":"Visibility","ImNetworkID":18,"ElevationMSL":null,"End Date":"2013-08-29T06:00:00.000Z","EPA Code":"010799000","Site Code":"SIPS1","Site ID":21,"Start Date":"1992-03-04T07:00:00.000Z","State":"AL","State FIPS":"01","Active":1},"type":"Feature"},{"geometry":{"coordinates":[-85.9503,46.2889],"type":"Point"},"properties":{"Site Name":"Seney","Parameter":"Visibility","ImNetworkID":17,"ElevationMSL":null,"End Date":"2013-08-29T06:00:00.000Z","EPA Code":"261539000","Site Code":"SENE1","Site ID":22,"Start Date":"1999-11-17T07:00:00.000Z","State":"MI","State FIPS":"26","Active":1},"type":"Feature"},{"geometry":{"coordinates":[-91.4955,47.9466],"type":"Point"},"properties":{"Site Name":"Boundary Waters Canoe Area","Parameter":"Visibility","ImNetworkID":17,"ElevationMSL":null,"End Date":"2013-08-29T06:00:00.000Z","EPA Code":"270759000","Site Code":"BOWA1","Site ID":23,"Start Date":"1991-06-01T06:00:00.000Z","State":"MN","State FIPS":"27","Active":1},"type":"Feature"},{"geometry":{"coordinates":[-92.8303,48.4132],"type":"Point"},"properties":{"Site Name":"Voyageurs NP #1","Parameter":"Visibility","ImNetworkID":17,"ElevationMSL":null,"End Date":"1999-12-29T07:00:00.000Z","EPA Code":"271379001","Site Code":"VOYA1","Site ID":24,"Start Date":"1988-03-02T07:00:00.000Z","State":"MN","State FIPS":"27","Active":0},"type":"Feature"},{"geometry":{"coordinates":[-88.1491,47.4596],"type":"Point"},"properties":{"Site Name":"Isle Royale NP","Parameter":"Visibility","ImNetworkID":17,"ElevationMSL":null,"End Date":"2013-08-29T06:00:00.000Z","EPA Code":"260839000","Site Code":"ISLE1","Site ID":25,"Start Date":"1999-11-17T07:00:00.000Z","State":"MI","State FIPS":"26","Active":1},"type":"Feature"},{"geometry":{"coordinates":[-90.1432,36.9717],"type":"Point"},"properties":{"Site Name":"Mingo","Parameter":"Visibility","ImNetworkID":3,"ElevationMSL":null,"End Date":"2013-08-29T06:00:00.000Z","EPA Code":"292070001","Site Code":"MING1","Site ID":26,"Start Date":"2000-06-03T06:00:00.000Z","State":"MO","State FIPS":"29","Active":1},"type":"Feature"},{"geometry":{"coordinates":[-93.203,35.8258],"type":"Point"},"properties":{"Site Name":"Upper Buffalo Wilderness","Parameter":"Visibility","ImNetworkID":3,"ElevationMSL":null,"End Date":"2013-08-29T06:00:00.000Z","EPA Code":"051019000","Site Code":"UPBU1","Site ID":27,"Start Date":"1991-12-04T07:00:00.000Z","State":"AR","State FIPS":"05","Active":1},"type":"Feature"},{"geometry":{"coordinates":[-92.9221,36.6138],"type":"Point"},"properties":{"Site Name":"Hercules-Glades","Parameter":"Visibility","ImNetworkID":3,"ElevationMSL":null,"End Date":"2013-08-29T06:00:00.000Z","EPA Code":"292130003","Site Code":"HEGL1","Site ID":28,"Start Date":"2001-03-02T07:00:00.000Z","State":"MO","State FIPS":"29","Active":1},"type":"Feature"},{"geometry":{"coordinates":[-94.1429,34.4544],"type":"Point"},"properties":{"Site Name":"Caney Creek","Parameter":"Visibility","ImNetworkID":3,"ElevationMSL":null,"End Date":"2013-08-29T06:00:00.000Z","EPA Code":"051130003","Site Code":"CACR1","Site ID":29,"Start Date":"2000-06-24T06:00:00.000Z","State":"AR","State FIPS":"05","Active":1},"type":"Feature"},{"geometry":{"coordinates":[-98.713,34.7323],"type":"Point"},"properties":{"Site Name":"Wichita Mountains","Parameter":"Visibility","ImNetworkID":26,"ElevationMSL":null,"End Date":"2013-08-29T06:00:00.000Z","EPA Code":"400319000","Site Code":"WIMO1","Site ID":30,"Start Date":"2001-03-02T07:00:00.000Z","State":"OK","State FIPS":"40","Active":1},"type":"Feature"},{"geometry":{"coordinates":[-103.178,29.3027],"type":"Point"},"properties":{"Site Name":"Big Bend NP","Parameter":"Visibility","ImNetworkID":31,"ElevationMSL":null,"End Date":"2013-08-29T06:00:00.000Z","EPA Code":"480430101","Site Code":"BIBE1","Site ID":31,"Start Date":"1988-03-02T07:00:00.000Z","State":"TX","State FIPS":"48","Active":1},"type":"Feature"},{"geometry":{"coordinates":[-104.8094,31.833],"type":"Point"},"properties":{"Site Name":"Guadalupe Mountains NP","Parameter":"Visibility","ImNetworkID":31,"ElevationMSL":null,"End Date":"2013-08-29T06:00:00.000Z","EPA Code":"481099000","Site Code":"GUMO1","Site ID":32,"Start Date":"1988-03-02T07:00:00.000Z","State":"TX","State FIPS":"48","Active":1},"type":"Feature"},{"geometry":{"coordinates":[-106.2664,35.7797],"type":"Point"},"properties":{"Site Name":"Bandelier NM","Parameter":"Visibility","ImNetworkID":15,"ElevationMSL":null,"End Date":"2013-08-29T06:00:00.000Z","EPA Code":"350281002","Site Code":"BAND1","Site ID":33,"Start Date":"1988-03-02T07:00:00.000Z","State":"NM","State FIPS":"35","Active":1},"type":"Feature"},{"geometry":{"coordinates":[-106.8447,36.0139],"type":"Point"},"properties":{"Site Name":"San Pedro Parks","Parameter":"Visibility","ImNetworkID":15,"ElevationMSL":null,"End Date":"2013-08-29T06:00:00.000Z","EPA Code":"350399000","Site Code":"SAPE1","Site ID":34,"Start Date":"2000-08-16T06:00:00.000Z","State":"NM","State FIPS":"35","Active":1},"type":"Feature"},{"geometry":{"coordinates":[-105.452,36.5854],"type":"Point"},"properties":{"Site Name":"Wheeler Peak","Parameter":"Visibility","ImNetworkID":26,"ElevationMSL":null,"End Date":"2013-08-29T06:00:00.000Z","EPA Code":"350559000","Site Code":"WHPE1","Site ID":35,"Start Date":"2000-08-16T06:00:00.000Z","State":"NM","State FIPS":"35","Active":1},"type":"Feature"},{"geometry":{"coordinates":[-104.4042,33.4598],"type":"Point"},"properties":{"Site Name":"Salt Creek","Parameter":"Visibility","ImNetworkID":31,"ElevationMSL":null,"End Date":"2013-08-29T06:00:00.000Z","EPA Code":"350059000","Site Code":"SACR1","Site ID":36,"Start Date":"2000-04-08T06:00:00.000Z","State":"NM","State FIPS":"35","Active":1},"type":"Feature"},{"geometry":{"coordinates":[-105.5349,33.4687],"type":"Point"},"properties":{"Site Name":"White Mountain","Parameter":"Visibility","ImNetworkID":31,"ElevationMSL":null,"End Date":"2013-08-29T06:00:00.000Z","EPA Code":"350279000","Site Code":"WHIT1","Site ID":37,"Start Date":"2001-12-03T07:00:00.000Z","State":"NM","State FIPS":"35","Active":1},"type":"Feature"},{"geometry":{"coordinates":[-106.852,33.8695],"type":"Point"},"properties":{"Site Name":"Bosque del Apache","Parameter":"Visibility","ImNetworkID":15,"ElevationMSL":null,"End Date":"2013-08-29T06:00:00.000Z","EPA Code":"350539000","Site Code":"BOAP1","Site ID":38,"Start Date":"2000-04-15T06:00:00.000Z","State":"NM","State FIPS":"35","Active":1},"type":"Feature"},{"geometry":{"coordinates":[-109.389,32.0094],"type":"Point"},"properties":{"Site Name":"Chiricahua NM","Parameter":"Visibility","ImNetworkID":4,"ElevationMSL":null,"End Date":"2013-08-29T06:00:00.000Z","EPA Code":"040038001","Site Code":"CHIR1","Site ID":39,"Start Date":"1988-03-02T07:00:00.000Z","State":"AZ","State FIPS":"04","Active":1},"type":"Feature"},{"geometry":{"coordinates":[-110.7371,32.1746],"type":"Point"},"properties":{"Site Name":"Saguaro NM","Parameter":"Visibility","ImNetworkID":4,"ElevationMSL":null,"End Date":"2013-08-29T06:00:00.000Z","EPA Code":"040190021","Site Code":"SAGU1","Site ID":40,"Start Date":"1988-06-01T06:00:00.000Z","State":"AZ","State FIPS":"04","Active":1},"type":"Feature"},{"geometry":{"coordinates":[-109.7692,35.0777],"type":"Point"},"properties":{"Site Name":"Petrified Forest NP","Parameter":"Visibility","ImNetworkID":15,"ElevationMSL":null,"End Date":"2013-08-29T06:00:00.000Z","EPA Code":"040170119","Site Code":"PEFO1","Site ID":41,"Start Date":"1988-03-02T07:00:00.000Z","State":"AZ","State FIPS":"04","Active":1},"type":"Feature"},{"geometry":{"coordinates":[-108.2351,33.2204],"type":"Point"},"properties":{"Site Name":"Gila Wilderness","Parameter":"Visibility","ImNetworkID":4,"ElevationMSL":null,"End Date":"2013-08-29T06:00:00.000Z","EPA Code":"350039000","Site Code":"GICL1","Site ID":42,"Start Date":"1994-03-02T07:00:00.000Z","State":"NM","State FIPS":"35","Active":1},"type":"Feature"},{"geometry":{"coordinates":[-109.4406,34.0584],"type":"Point"},"properties":{"Site Name":"Mount Baldy","Parameter":"Visibility","ImNetworkID":15,"ElevationMSL":null,"End Date":"2013-08-29T06:00:00.000Z","EPA Code":"040018001","Site Code":"BALD1","Site ID":43,"Start Date":"2000-03-01T07:00:00.000Z","State":"AZ","State FIPS":"04","Active":1},"type":"Feature"},{"geometry":{"coordinates":[-111.1068,33.6548],"type":"Point"},"properties":{"Site Name":"Tonto NM","Parameter":"Visibility","ImNetworkID":4,"ElevationMSL":null,"End Date":"2013-08-29T06:00:00.000Z","EPA Code":"040070010","Site Code":"TONT1","Site ID":44,"Start Date":"1988-03-02T07:00:00.000Z","State":"AZ","State FIPS":"04","Active":1},"type":"Feature"},{"geometry":{"coordinates":[-110.9421,34.0908],"type":"Point"},"properties":{"Site Name":"Sierra Ancha","Parameter":"Visibility","ImNetworkID":4,"ElevationMSL":null,"End Date":"2013-08-29T06:00:00.000Z","EPA Code":"040078100","Site Code":"SIAN1","Site ID":45,"Start Date":"2000-02-09T07:00:00.000Z","State":"AZ","State FIPS":"04","Active":1},"type":"Feature"},{"geometry":{"coordinates":[-111.6832,34.3405],"type":"Point"},"properties":{"Site Name":"Ike's Backbone","Parameter":"Visibility","ImNetworkID":4,"ElevationMSL":null,"End Date":"2013-08-29T06:00:00.000Z","EPA Code":"040258104","Site Code":"IKBA1","Site ID":46,"Start Date":"2000-03-29T07:00:00.000Z","State":"AZ","State FIPS":"04","Active":1},"type":"Feature"},{"geometry":{"coordinates":[-111.9692,35.1406],"type":"Point"},"properties":{"Site Name":"Sycamore Canyon","Parameter":"Visibility","ImNetworkID":15,"ElevationMSL":null,"End Date":"2013-08-29T06:00:00.000Z","EPA Code":"040058103","Site Code":"SYCA1","Site ID":47,"Start Date":"1991-09-04T06:00:00.000Z","State":"AZ","State FIPS":"04","Active":1},"type":"Feature"},{"geometry":{"coordinates":[-111.9841,35.9731],"type":"Point"},"properties":{"Site Name":"Hance Camp at Grand Canyon NP","Parameter":"Visibility","ImNetworkID":15,"ElevationMSL":null,"End Date":"2013-08-29T06:00:00.000Z","EPA Code":"040058102","Site Code":"GRCA2","Site ID":48,"Start Date":"1996-03-02T07:00:00.000Z","State":"AZ","State FIPS":"04","Active":1},"type":"Feature"},{"geometry":{"coordinates":[-112.1736,37.6184],"type":"Point"},"properties":{"Site Name":"Bryce Canyon NP","Parameter":"Visibility","ImNetworkID":8,"ElevationMSL":null,"End Date":"2013-08-29T06:00:00.000Z","EPA Code":"490170101","Site Code":"BRCA1","Site ID":49,"Start Date":"1988-03-02T07:00:00.000Z","State":"UT","State FIPS":"49","Active":1},"type":"Feature"},{"geometry":{"coordinates":[-109.821,38.4587],"type":"Point"},"properties":{"Site Name":"Canyonlands NP","Parameter":"Visibility","ImNetworkID":8,"ElevationMSL":null,"End Date":"2013-08-29T06:00:00.000Z","EPA Code":"490379000","Site Code":"CANY1","Site ID":50,"Start Date":"1988-03-02T07:00:00.000Z","State":"UT","State FIPS":"49","Active":1},"type":"Feature"},{"geometry":{"coordinates":[-113.2243,37.4591],"type":"Point"},"properties":{"Site Name":"Zion","Parameter":"Visibility","ImNetworkID":8,"ElevationMSL":null,"End Date":"2004-08-22T06:00:00.000Z","EPA Code":"490539000","Site Code":"ZION1","Site ID":51,"Start Date":"2000-03-25T07:00:00.000Z","State":"UT","State FIPS":"49","Active":0},"type":"Feature"},{"geometry":{"coordinates":[-111.2926,38.3022],"type":"Point"},"properties":{"Site Name":"Capitol Reef NP","Parameter":"Visibility","ImNetworkID":8,"ElevationMSL":null,"End Date":"2013-08-29T06:00:00.000Z","EPA Code":"490559000","Site Code":"CAPI1","Site ID":52,"Start Date":"2000-04-19T06:00:00.000Z","State":"UT","State FIPS":"49","Active":1},"type":"Feature"},{"geometry":{"coordinates":[-105.5185,37.7249],"type":"Point"},"properties":{"Site Name":"Great Sand Dunes NM","Parameter":"Visibility","ImNetworkID":19,"ElevationMSL":null,"End Date":"2013-08-29T06:00:00.000Z","EPA Code":"080039000","Site Code":"GRSA1","Site ID":53,"Start Date":"1988-03-02T07:00:00.000Z","State":"CO","State FIPS":"08","Active":1},"type":"Feature"},{"geometry":{"coordinates":[-108.4907,37.1984],"type":"Point"},"properties":{"Site Name":"Mesa Verde NP","Parameter":"Visibility","ImNetworkID":15,"ElevationMSL":null,"End Date":"2013-08-29T06:00:00.000Z","EPA Code":"080839000","Site Code":"MEVE1","Site ID":54,"Start Date":"1988-03-02T07:00:00.000Z","State":"CO","State FIPS":"08","Active":1},"type":"Feature"},{"geometry":{"coordinates":[-107.7999,37.6594],"type":"Point"},"properties":{"Site Name":"Weminuche Wilderness","Parameter":"Visibility","ImNetworkID":8,"ElevationMSL":null,"End Date":"2013-08-29T06:00:00.000Z","EPA Code":"081119000","Site Code":"WEMI1","Site ID":55,"Start Date":"1988-03-02T07:00:00.000Z","State":"CO","State FIPS":"08","Active":1},"type":"Feature"},{"geometry":{"coordinates":[-106.8209,39.1536],"type":"Point"},"properties":{"Site Name":"White River NF","Parameter":"Visibility","ImNetworkID":8,"ElevationMSL":null,"End Date":"2013-08-29T06:00:00.000Z","EPA Code":"080979000","Site Code":"WHRI1","Site ID":56,"Start Date":"1993-06-02T06:00:00.000Z","State":"CO","State FIPS":"08","Active":1},"type":"Feature"},{"geometry":{"coordinates":[-105.5457,40.2783],"type":"Point"},"properties":{"Site Name":"Rocky Mountain NP","Parameter":"Visibility","ImNetworkID":19,"ElevationMSL":null,"End Date":"2013-08-29T06:00:00.000Z","EPA Code":"080699001","Site Code":"ROMO1","Site ID":57,"Start Date":"1990-09-01T06:00:00.000Z","State":"CO","State FIPS":"08","Active":1},"type":"Feature"},{"geometry":{"coordinates":[-106.6766,40.5383],"type":"Point"},"properties":{"Site Name":"Mount Zirkel Wilderness","Parameter":"Visibility","ImNetworkID":19,"ElevationMSL":null,"End Date":"2013-08-29T06:00:00.000Z","EPA Code":"080579000","Site Code":"MOZI1","Site ID":58,"Start Date":"1994-06-01T06:00:00.000Z","State":"CO","State FIPS":"08","Active":1},"type":"Feature"},{"geometry":{"coordinates":[-101.9412,43.7435],"type":"Point"},"properties":{"Site Name":"Badlands NP","Parameter":"Visibility","ImNetworkID":32,"ElevationMSL":null,"End Date":"2013-08-29T06:00:00.000Z","EPA Code":"460710001","Site Code":"BADL1","Site ID":59,"Start Date":"1988-03-02T07:00:00.000Z","State":"SD","State FIPS":"46","Active":1},"type":"Feature"},{"geometry":{"coordinates":[-103.4838,43.5576],"type":"Point"},"properties":{"Site Name":"Wind Cave","Parameter":"Visibility","ImNetworkID":32,"ElevationMSL":null,"End Date":"2013-08-29T06:00:00.000Z","EPA Code":"460330132","Site Code":"WICA1","Site ID":60,"Start Date":"1999-12-15T07:00:00.000Z","State":"SD","State FIPS":"46","Active":1},"type":"Feature"},{"geometry":{"coordinates":[-103.3777,46.8948],"type":"Point"},"properties":{"Site Name":"Theodore Roosevelt","Parameter":"Visibility","ImNetworkID":32,"ElevationMSL":null,"End Date":"2013-08-29T06:00:00.000Z","EPA Code":"380070002","Site Code":"THRO1","Site ID":61,"Start Date":"1999-12-15T07:00:00.000Z","State":"ND","State FIPS":"38","Active":1},"type":"Feature"},{"geometry":{"coordinates":[-102.4022,48.6419],"type":"Point"},"properties":{"Site Name":"Lostwood","Parameter":"Visibility","ImNetworkID":32,"ElevationMSL":null,"End Date":"2013-08-29T06:00:00.000Z","EPA Code":"380130004","Site Code":"LOST1","Site ID":62,"Start Date":"1999-12-15T07:00:00.000Z","State":"ND","State FIPS":"38","Active":1},"type":"Feature"},{"geometry":{"coordinates":[-104.4757,48.4871],"type":"Point"},"properties":{"Site Name":"Medicine Lake","Parameter":"Visibility","ImNetworkID":32,"ElevationMSL":null,"End Date":"2013-08-29T06:00:00.000Z","EPA Code":"300919000","Site Code":"MELA1","Site ID":63,"Start Date":"1999-12-15T07:00:00.000Z","State":"MT","State FIPS":"30","Active":1},"type":"Feature"},{"geometry":{"coordinates":[-108.7196,47.5823],"type":"Point"},"properties":{"Site Name":"UL Bend","Parameter":"Visibility","ImNetworkID":19,"ElevationMSL":null,"End Date":"2013-08-29T06:00:00.000Z","EPA Code":"300279000","Site Code":"ULBE1","Site ID":64,"Start Date":"2000-01-26T07:00:00.000Z","State":"MT","State FIPS":"30","Active":1},"type":"Feature"},{"geometry":{"coordinates":[-109.7579,42.9749],"type":"Point"},"properties":{"Site Name":"Bridger Wilderness","Parameter":"Visibility","ImNetworkID":10,"ElevationMSL":null,"End Date":"2013-08-29T06:00:00.000Z","EPA Code":"560359000","Site Code":"BRID1","Site ID":65,"Start Date":"1988-03-02T07:00:00.000Z","State":"WY","State FIPS":"56","Active":1},"type":"Feature"},{"geometry":{"coordinates":[-110.4003,44.5654],"type":"Point"},"properties":{"Site Name":"Yellowstone NP 1","Parameter":"Visibility","ImNetworkID":10,"ElevationMSL":null,"End Date":"1999-12-29T07:00:00.000Z","EPA Code":"560399001","Site Code":"YELL1","Site ID":66,"Start Date":"1988-03-09T07:00:00.000Z","State":"WY","State FIPS":"56","Active":0},"type":"Feature"},{"geometry":{"coordinates":[-109.3816,44.7448],"type":"Point"},"properties":{"Site Name":"North Absaroka","Parameter":"Visibility","ImNetworkID":10,"ElevationMSL":null,"End Date":"2013-08-29T06:00:00.000Z","EPA Code":"560299002","Site Code":"NOAB1","Site ID":67,"Start Date":"2000-01-26T07:00:00.000Z","State":"WY","State FIPS":"56","Active":1},"type":"Feature"},{"geometry":{"coordinates":[-115.4261,41.8926],"type":"Point"},"properties":{"Site Name":"Jarbidge Wilderness","Parameter":"Visibility","ImNetworkID":25,"ElevationMSL":null,"End Date":"2013-08-29T06:00:00.000Z","EPA Code":"320079000","Site Code":"JARB1","Site ID":68,"Start Date":"1988-03-02T07:00:00.000Z","State":"NV","State FIPS":"32","Active":1},"type":"Feature"},{"geometry":{"coordinates":[-113.5551,43.4605],"type":"Point"},"properties":{"Site Name":"Craters of the Moon NM","Parameter":"Visibility","ImNetworkID":25,"ElevationMSL":null,"End Date":"2013-08-29T06:00:00.000Z","EPA Code":"160230101","Site Code":"CRMO1","Site ID":69,"Start Date":"1992-03-04T07:00:00.000Z","State":"ID","State FIPS":"16","Active":1},"type":"Feature"},{"geometry":{"coordinates":[-114.9271,44.1705],"type":"Point"},"properties":{"Site Name":"Sawtooth NF","Parameter":"Visibility","ImNetworkID":25,"ElevationMSL":null,"End Date":"2013-08-29T06:00:00.000Z","EPA Code":"160370002","Site Code":"SAWT1","Site ID":70,"Start Date":"1993-12-01T07:00:00.000Z","State":"ID","State FIPS":"16","Active":1},"type":"Feature"},{"geometry":{"coordinates":[-114.0001,45.8598],"type":"Point"},"properties":{"Site Name":"Sula Peak","Parameter":"Visibility","ImNetworkID":25,"ElevationMSL":null,"End Date":"2013-08-29T06:00:00.000Z","EPA Code":"300819000","Site Code":"SULA1","Site ID":71,"Start Date":"1994-06-01T06:00:00.000Z","State":"MT","State FIPS":"30","Active":1},"type":"Feature"},{"geometry":{"coordinates":[-113.9966,48.5105],"type":"Point"},"properties":{"Site Name":"Glacier NP","Parameter":"Visibility","ImNetworkID":19,"ElevationMSL":null,"End Date":"2013-08-29T06:00:00.000Z","EPA Code":"300299001","Site Code":"GLAC1","Site ID":72,"Start Date":"1988-03-02T07:00:00.000Z","State":"MT","State FIPS":"30","Active":1},"type":"Feature"},{"geometry":{"coordinates":[-113.1544,47.1222],"type":"Point"},"properties":{"Site Name":"Monture","Parameter":"Visibility","ImNetworkID":19,"ElevationMSL":null,"End Date":"2013-08-29T06:00:00.000Z","EPA Code":"300779000","Site Code":"MONT1","Site ID":73,"Start Date":"2000-03-29T07:00:00.000Z","State":"MT","State FIPS":"30","Active":1},"type":"Feature"},{"geometry":{"coordinates":[-111.7107,46.8262],"type":"Point"},"properties":{"Site Name":"Gates of the Mountains","Parameter":"Visibility","ImNetworkID":19,"ElevationMSL":null,"End Date":"2013-08-29T06:00:00.000Z","EPA Code":"300499000","Site Code":"GAMO1","Site ID":74,"Start Date":"2000-07-26T06:00:00.000Z","State":"MT","State FIPS":"30","Active":1},"type":"Feature"},{"geometry":{"coordinates":[-115.6709,47.9549],"type":"Point"},"properties":{"Site Name":"Cabinet Mountains","Parameter":"Visibility","ImNetworkID":19,"ElevationMSL":null,"End Date":"2013-08-29T06:00:00.000Z","EPA Code":"300899000","Site Code":"CABI1","Site ID":75,"Start Date":"2000-07-26T06:00:00.000Z","State":"MT","State FIPS":"30","Active":1},"type":"Feature"},{"geometry":{"coordinates":[-118.5129,45.2249],"type":"Point"},"properties":{"Site Name":"Starkey","Parameter":"Visibility","ImNetworkID":25,"ElevationMSL":null,"End Date":"2013-08-29T06:00:00.000Z","EPA Code":"410610010","Site Code":"STAR1","Site ID":76,"Start Date":"2000-03-15T07:00:00.000Z","State":"OR","State FIPS":"41","Active":1},"type":"Feature"},{"geometry":{"coordinates":[-116.8438,44.9702],"type":"Point"},"properties":{"Site Name":"Hells Canyon","Parameter":"Visibility","ImNetworkID":25,"ElevationMSL":null,"End Date":"2013-08-29T06:00:00.000Z","EPA Code":"410630002","Site Code":"HECA1","Site ID":77,"Start Date":"2000-09-03T06:00:00.000Z","State":"OR","State FIPS":"41","Active":1},"type":"Feature"},{"geometry":{"coordinates":[-122.1244,46.7583],"type":"Point"},"properties":{"Site Name":"Mount Rainier NP","Parameter":"Visibility","ImNetworkID":1,"ElevationMSL":null,"End Date":"2013-08-29T06:00:00.000Z","EPA Code":"530530014","Site Code":"MORA1","Site ID":78,"Start Date":"1988-03-02T07:00:00.000Z","State":"WA","State FIPS":"53","Active":1},"type":"Feature"},{"geometry":{"coordinates":[-121.3881,46.6243],"type":"Point"},"properties":{"Site Name":"White Pass","Parameter":"Visibility","ImNetworkID":1,"ElevationMSL":null,"End Date":"2013-08-29T06:00:00.000Z","EPA Code":"530410007","Site Code":"WHPA1","Site ID":79,"Start Date":"2000-02-16T07:00:00.000Z","State":"WA","State FIPS":"53","Active":1},"type":"Feature"},{"geometry":{"coordinates":[-121.4259,47.422],"type":"Point"},"properties":{"Site Name":"Snoqualmie Pass","Parameter":"Visibility","ImNetworkID":1,"ElevationMSL":null,"End Date":"2013-08-29T06:00:00.000Z","EPA Code":"530370004","Site Code":"SNPA1","Site ID":80,"Start Date":"1993-06-02T06:00:00.000Z","State":"WA","State FIPS":"53","Active":1},"type":"Feature"},{"geometry":{"coordinates":[-121.0646,48.7316],"type":"Point"},"properties":{"Site Name":"North Cascades","Parameter":"Visibility","ImNetworkID":1,"ElevationMSL":null,"End Date":"2013-08-29T06:00:00.000Z","EPA Code":"530730022","Site Code":"NOCA1","Site ID":81,"Start Date":"1997-07-30T06:00:00.000Z","State":"WA","State FIPS":"53","Active":1},"type":"Feature"},{"geometry":{"coordinates":[-119.9275,48.3877],"type":"Point"},"properties":{"Site Name":"Pasayten","Parameter":"Visibility","ImNetworkID":1,"ElevationMSL":null,"End Date":"2013-08-29T06:00:00.000Z","EPA Code":"530470012","Site Code":"PASA1","Site ID":82,"Start Date":"2000-11-02T07:00:00.000Z","State":"WA","State FIPS":"53","Active":1},"type":"Feature"},{"geometry":{"coordinates":[-122.9727,48.0065],"type":"Point"},"properties":{"Site Name":"Olympic","Parameter":"Visibility","ImNetworkID":1,"ElevationMSL":null,"End Date":"2013-08-29T06:00:00.000Z","EPA Code":"530090020","Site Code":"OLYM1","Site ID":83,"Start Date":"2001-07-12T06:00:00.000Z","State":"WA","State FIPS":"53","Active":1},"type":"Feature"},{"geometry":{"coordinates":[-122.0434,44.291],"type":"Point"},"properties":{"Site Name":"Three Sisters Wilderness","Parameter":"Visibility","ImNetworkID":23,"ElevationMSL":null,"End Date":"2013-08-29T06:00:00.000Z","EPA Code":"410390070","Site Code":"THSI1","Site ID":84,"Start Date":"1993-06-02T06:00:00.000Z","State":"OR","State FIPS":"41","Active":1},"type":"Feature"},{"geometry":{"coordinates":[-121.7837,45.2888],"type":"Point"},"properties":{"Site Name":"Mount Hood","Parameter":"Visibility","ImNetworkID":1,"ElevationMSL":null,"End Date":"2013-08-29T06:00:00.000Z","EPA Code":"410050010","Site Code":"MOHO1","Site ID":85,"Start Date":"2000-03-15T07:00:00.000Z","State":"OR","State FIPS":"41","Active":1},"type":"Feature"},{"geometry":{"coordinates":[-122.1361,42.8958],"type":"Point"},"properties":{"Site Name":"Crater Lake NP","Parameter":"Visibility","ImNetworkID":23,"ElevationMSL":null,"End Date":"2013-08-29T06:00:00.000Z","EPA Code":"410358001","Site Code":"CRLA1","Site ID":86,"Start Date":"1988-03-02T07:00:00.000Z","State":"OR","State FIPS":"41","Active":1},"type":"Feature"},{"geometry":{"coordinates":[-121.5068,41.7117],"type":"Point"},"properties":{"Site Name":"Lava Beds NM","Parameter":"Visibility","ImNetworkID":23,"ElevationMSL":null,"End Date":"2013-08-29T06:00:00.000Z","EPA Code":"060930005","Site Code":"LABE1","Site ID":87,"Start Date":"2000-03-29T07:00:00.000Z","State":"CA","State FIPS":"06","Active":1},"type":"Feature"},{"geometry":{"coordinates":[-124.0839,41.5608],"type":"Point"},"properties":{"Site Name":"Redwood NP","Parameter":"Visibility","ImNetworkID":23,"ElevationMSL":null,"End Date":"2013-08-29T06:00:00.000Z","EPA Code":"060150002","Site Code":"REDW1","Site ID":88,"Start Date":"1988-03-02T07:00:00.000Z","State":"CA","State FIPS":"06","Active":1},"type":"Feature"},{"geometry":{"coordinates":[-124.0589,42.552],"type":"Point"},"properties":{"Site Name":"Kalmiopsis","Parameter":"Visibility","ImNetworkID":23,"ElevationMSL":null,"End Date":"2013-08-29T06:00:00.000Z","EPA Code":"410330010","Site Code":"KALM1","Site ID":89,"Start Date":"2000-03-11T07:00:00.000Z","State":"OR","State FIPS":"41","Active":1},"type":"Feature"},{"geometry":{"coordinates":[-121.5768,40.5398],"type":"Point"},"properties":{"Site Name":"Lassen Volcanic NP","Parameter":"Visibility","ImNetworkID":23,"ElevationMSL":null,"End Date":"2013-08-29T06:00:00.000Z","EPA Code":"060893003","Site Code":"LAVO1","Site ID":90,"Start Date":"1988-03-02T07:00:00.000Z","State":"CA","State FIPS":"06","Active":1},"type":"Feature"},{"geometry":{"coordinates":[-122.9085,38.1224],"type":"Point"},"properties":{"Site Name":"Point Reyes National Seashore","Parameter":"Visibility","ImNetworkID":9,"ElevationMSL":null,"End Date":"2013-08-29T06:00:00.000Z","EPA Code":"060410002","Site Code":"PORE1","Site ID":91,"Start Date":"1988-03-02T07:00:00.000Z","State":"CA","State FIPS":"06","Active":1},"type":"Feature"},{"geometry":{"coordinates":[-121.1568,36.4833],"type":"Point"},"properties":{"Site Name":"Pinnacles NM","Parameter":"Visibility","ImNetworkID":9,"ElevationMSL":null,"End Date":"2013-08-29T06:00:00.000Z","EPA Code":"060690003","Site Code":"PINN1","Site ID":92,"Start Date":"1988-03-02T07:00:00.000Z","State":"CA","State FIPS":"06","Active":1},"type":"Feature"},{"geometry":{"coordinates":[-118.0282,34.2969],"type":"Point"},"properties":{"Site Name":"San Gabriel","Parameter":"Visibility","ImNetworkID":12,"ElevationMSL":null,"End Date":"2013-08-29T06:00:00.000Z","EPA Code":"060379034","Site Code":"SAGA1","Site ID":93,"Start Date":"2001-12-03T07:00:00.000Z","State":"CA","State FIPS":"06","Active":1},"type":"Feature"},{"geometry":{"coordinates":[-120.0074,34.7339],"type":"Point"},"properties":{"Site Name":"San Rafael","Parameter":"Visibility","ImNetworkID":12,"ElevationMSL":null,"End Date":"2013-08-29T06:00:00.000Z","EPA Code":"060839000","Site Code":"RAFA1","Site ID":94,"Start Date":"2000-02-02T07:00:00.000Z","State":"CA","State FIPS":"06","Active":1},"type":"Feature"},{"geometry":{"coordinates":[-120.1025,38.9761],"type":"Point"},"properties":{"Site Name":"Bliss SP (TRPA)","Parameter":"Visibility","ImNetworkID":20,"ElevationMSL":null,"End Date":"2013-08-29T06:00:00.000Z","EPA Code":"060179000","Site Code":"BLIS1","Site ID":95,"Start Date":"1990-09-01T06:00:00.000Z","State":"CA","State FIPS":"06","Active":1},"type":"Feature"},{"geometry":{"coordinates":[-119.7061,37.7133],"type":"Point"},"properties":{"Site Name":"Yosemite NP","Parameter":"Visibility","ImNetworkID":20,"ElevationMSL":null,"End Date":"2013-08-29T06:00:00.000Z","EPA Code":"060430003","Site Code":"YOSE1","Site ID":96,"Start Date":"1988-03-02T07:00:00.000Z","State":"CA","State FIPS":"06","Active":1},"type":"Feature"},{"geometry":{"coordinates":[-119.1771,38.0881],"type":"Point"},"properties":{"Site Name":"Hoover","Parameter":"Visibility","ImNetworkID":20,"ElevationMSL":null,"End Date":"2013-08-29T06:00:00.000Z","EPA Code":"060519000","Site Code":"HOOV1","Site ID":97,"Start Date":"2001-06-06T06:00:00.000Z","State":"CA","State FIPS":"06","Active":1},"type":"Feature"},{"geometry":{"coordinates":[-118.8291,36.4894],"type":"Point"},"properties":{"Site Name":"Sequoia NP","Parameter":"Visibility","ImNetworkID":20,"ElevationMSL":null,"End Date":"2013-08-29T06:00:00.000Z","EPA Code":"061071001","Site Code":"SEQU1","Site ID":98,"Start Date":"1992-03-04T07:00:00.000Z","State":"CA","State FIPS":"06","Active":1},"type":"Feature"},{"geometry":{"coordinates":[-116.9132,34.1939],"type":"Point"},"properties":{"Site Name":"San Gorgonio Wilderness","Parameter":"Visibility","ImNetworkID":27,"ElevationMSL":null,"End Date":"2013-08-29T06:00:00.000Z","EPA Code":"060719010","Site Code":"SAGO1","Site ID":99,"Start Date":"1988-03-02T07:00:00.000Z","State":"CA","State FIPS":"06","Active":1},"type":"Feature"},{"geometry":{"coordinates":[-116.9706,33.4636],"type":"Point"},"properties":{"Site Name":"Agua Tibia","Parameter":"Visibility","ImNetworkID":12,"ElevationMSL":null,"End Date":"2013-08-29T06:00:00.000Z","EPA Code":"060659000","Site Code":"AGTI1","Site ID":100,"Start Date":"2000-12-20T07:00:00.000Z","State":"CA","State FIPS":"06","Active":1},"type":"Feature"},{"geometry":{"coordinates":[-116.3889,34.0695],"type":"Point"},"properties":{"Site Name":"Joshua Tree NP","Parameter":"Visibility","ImNetworkID":27,"ElevationMSL":null,"End Date":"2013-08-29T06:00:00.000Z","EPA Code":"060719002","Site Code":"JOSH1","Site ID":101,"Start Date":"2000-02-23T07:00:00.000Z","State":"CA","State FIPS":"06","Active":1},"type":"Feature"},{"geometry":{"coordinates":[-148.9675,63.7233],"type":"Point"},"properties":{"Site Name":"Denali NP","Parameter":"Visibility","ImNetworkID":6,"ElevationMSL":null,"End Date":"2013-08-29T06:00:00.000Z","EPA Code":"020680003","Site Code":"DENA1","Site ID":102,"Start Date":"1988-03-02T07:00:00.000Z","State":"AK","State FIPS":"02","Active":1},"type":"Feature"},{"geometry":{"coordinates":[-152.6656,59.9925],"type":"Point"},"properties":{"Site Name":"Tuxedni","Parameter":"Visibility","ImNetworkID":13,"ElevationMSL":null,"End Date":"2013-08-29T06:00:00.000Z","EPA Code":"021220009","Site Code":"TUXE1","Site ID":103,"Start Date":"2001-12-03T07:00:00.000Z","State":"AK","State FIPS":"02","Active":1},"type":"Feature"},{"geometry":{"coordinates":[-122.8046,40.7864],"type":"Point"},"properties":{"Site Name":"Trinity","Parameter":"Visibility","ImNetworkID":23,"ElevationMSL":null,"End Date":"2013-08-29T06:00:00.000Z","EPA Code":"061059000","Site Code":"TRIN1","Site ID":104,"Start Date":"2000-10-18T06:00:00.000Z","State":"CA","State FIPS":"06","Active":1},"type":"Feature"},{"geometry":{"coordinates":[-160.5063,55.3255],"type":"Point"},"properties":{"Site Name":"Simeonof","Parameter":"Visibility","ImNetworkID":null,"ElevationMSL":null,"End Date":"2013-08-29T06:00:00.000Z","EPA Code":"020130002","Site Code":"SIME1","Site ID":105,"Start Date":"2001-09-13T06:00:00.000Z","State":"AK","State FIPS":"02","Active":1},"type":"Feature"},{"geometry":{"coordinates":[-64.7962,18.3363],"type":"Point"},"properties":{"Site Name":"Virgin Islands NP","Parameter":"Visibility","ImNetworkID":28,"ElevationMSL":null,"End Date":"2013-08-29T06:00:00.000Z","EPA Code":"780209000","Site Code":"VIIS1","Site ID":106,"Start Date":"1990-09-01T06:00:00.000Z","State":"VI","State FIPS":"78","Active":1},"type":"Feature"},{"geometry":{"coordinates":[-155.2579,19.4309],"type":"Point"},"properties":{"Site Name":"Hawaii Volcanoes NP","Parameter":"Visibility","ImNetworkID":16,"ElevationMSL":null,"End Date":"2013-08-29T06:00:00.000Z","EPA Code":"150019002","Site Code":"HAVO1","Site ID":107,"Start Date":"1988-03-02T07:00:00.000Z","State":"HI","State FIPS":"15","Active":1},"type":"Feature"},{"geometry":{"coordinates":[-156.2823,20.8086],"type":"Point"},"properties":{"Site Name":"Haleakala NP","Parameter":"Visibility","ImNetworkID":16,"ElevationMSL":null,"End Date":"2012-05-30T06:00:00.000Z","EPA Code":"150099000","Site Code":"HALE1","Site ID":108,"Start Date":"1990-12-01T07:00:00.000Z","State":"HI","State FIPS":"15","Active":0},"type":"Feature"},{"geometry":{"coordinates":[-118.2021,35.6987],"type":"Point"},"properties":{"Site Name":"Dome Lands Wilderness","Parameter":"Visibility","ImNetworkID":20,"ElevationMSL":null,"End Date":"1999-12-29T07:00:00.000Z","EPA Code":"060299902","Site Code":"DOLA1","Site ID":109,"Start Date":"1994-06-01T06:00:00.000Z","State":"CA","State FIPS":"06","Active":0},"type":"Feature"},{"geometry":{"coordinates":[-118.1377,35.7278],"type":"Point"},"properties":{"Site Name":"Dome Lands Wilderness","Parameter":"Visibility","ImNetworkID":20,"ElevationMSL":null,"End Date":"2013-08-29T06:00:00.000Z","EPA Code":"060299001","Site Code":"DOME1","Site ID":110,"Start Date":"2000-02-02T07:00:00.000Z","State":"CA","State FIPS":"06","Active":1},"type":"Feature"},{"geometry":{"coordinates":[-119.1546,37.2207],"type":"Point"},"properties":{"Site Name":"Kaiser","Parameter":"Visibility","ImNetworkID":20,"ElevationMSL":null,"End Date":"2013-08-29T06:00:00.000Z","EPA Code":"060199000","Site Code":"KAIS1","Site ID":111,"Start Date":"2000-01-26T07:00:00.000Z","State":"CA","State FIPS":"06","Active":1},"type":"Feature"},{"geometry":{"coordinates":[-150.3156,62.3153],"type":"Point"},"properties":{"Site Name":"Trapper Creek","Parameter":"Visibility","ImNetworkID":6,"ElevationMSL":null,"End Date":"2013-08-29T06:00:00.000Z","EPA Code":"021700011","Site Code":"TRCR1","Site ID":112,"Start Date":"2001-09-13T06:00:00.000Z","State":"AK","State FIPS":"02","Active":1},"type":"Feature"},{"geometry":{"coordinates":[-121.0008,45.6644],"type":"Point"},"properties":{"Site Name":"Columbia River Gorge","Parameter":"Visibility","ImNetworkID":1,"ElevationMSL":null,"End Date":"2013-08-29T06:00:00.000Z","EPA Code":"530390011","Site Code":"CORI1","Site ID":113,"Start Date":"1993-06-02T06:00:00.000Z","State":"WA","State FIPS":"53","Active":1},"type":"Feature"},{"geometry":{"coordinates":[-114.026,45.1588],"type":"Point"},"properties":{"Site Name":"Salmon NF","Parameter":"Visibility","ImNetworkID":25,"ElevationMSL":null,"End Date":"2000-11-05T07:00:00.000Z","EPA Code":"160590007","Site Code":"SALM1","Site ID":114,"Start Date":"1993-12-01T07:00:00.000Z","State":"ID","State FIPS":"16","Active":0},"type":"Feature"},{"geometry":{"coordinates":[-106.2418,41.3662],"type":"Point"},"properties":{"Site Name":"Brooklyn Lake","Parameter":"Visibility","ImNetworkID":19,"ElevationMSL":null,"End Date":"2004-01-31T07:00:00.000Z","EPA Code":"560019000","Site Code":"BRLA1","Site ID":115,"Start Date":"1993-07-31T06:00:00.000Z","State":"WY","State FIPS":"56","Active":0},"type":"Feature"},{"geometry":{"coordinates":[-111.7081,40.4449],"type":"Point"},"properties":{"Site Name":"Lone Peak Wilderness","Parameter":"Visibility","ImNetworkID":8,"ElevationMSL":null,"End Date":"2001-08-29T06:00:00.000Z","EPA Code":"490499000","Site Code":"LOPE1","Site ID":116,"Start Date":"1993-12-01T07:00:00.000Z","State":"UT","State FIPS":"49","Active":0},"type":"Feature"},{"geometry":{"coordinates":[-114.2161,39.0052],"type":"Point"},"properties":{"Site Name":"Great Basin NP","Parameter":"Visibility","ImNetworkID":27,"ElevationMSL":null,"End Date":"2013-08-29T06:00:00.000Z","EPA Code":"320339000","Site Code":"GRBA1","Site ID":117,"Start Date":"1992-03-04T07:00:00.000Z","State":"NV","State FIPS":"32","Active":1},"type":"Feature"},{"geometry":{"coordinates":[-112.1288,36.0778],"type":"Point"},"properties":{"Site Name":"Indian Gardens","Parameter":"Visibility","ImNetworkID":15,"ElevationMSL":null,"End Date":"2013-05-13T06:00:00.000Z","EPA Code":"040058100","Site Code":"INGA1","Site ID":118,"Start Date":"1989-09-02T06:00:00.000Z","State":"AZ","State FIPS":"04","Active":0},"type":"Feature"},{"geometry":{"coordinates":[-116.8478,36.5089],"type":"Point"},"properties":{"Site Name":"Death Valley NP","Parameter":"Visibility","ImNetworkID":27,"ElevationMSL":null,"End Date":"2013-04-28T06:00:00.000Z","EPA Code":"060270101","Site Code":"DEVA1","Site ID":119,"Start Date":"1993-09-04T06:00:00.000Z","State":"CA","State FIPS":"06","Active":0},"type":"Feature"},{"geometry":{"coordinates":[-77.0344,38.8762],"type":"Point"},"properties":{"Site Name":"Washington D.C.","Parameter":"Visibility","ImNetworkID":7,"ElevationMSL":null,"End Date":"2013-08-29T06:00:00.000Z","EPA Code":"110010042","Site Code":"WASH1","Site ID":120,"Start Date":"1988-03-02T07:00:00.000Z","State":"DC","State FIPS":"11","Active":1},"type":"Feature"},{"geometry":{"coordinates":[-111.2178,32.2486],"type":"Point"},"properties":{"Site Name":"Saguaro West","Parameter":"Visibility","ImNetworkID":4,"ElevationMSL":null,"End Date":"2013-08-29T06:00:00.000Z","EPA Code":"040199000","Site Code":"SAWE1","Site ID":121,"Start Date":"2001-10-31T07:00:00.000Z","State":"AZ","State FIPS":"04","Active":1},"type":"Feature"},{"geometry":{"coordinates":[-111.2858,33.2939],"type":"Point"},"properties":{"Site Name":"Queen Valley","Parameter":"Visibility","ImNetworkID":4,"ElevationMSL":null,"End Date":"2013-08-29T06:00:00.000Z","EPA Code":"040218001","Site Code":"QUVA1","Site ID":122,"Start Date":"2001-04-19T06:00:00.000Z","State":"AZ","State FIPS":"04","Active":1},"type":"Feature"},{"geometry":{"coordinates":[-112.8016,31.9506],"type":"Point"},"properties":{"Site Name":"Organ Pipe","Parameter":"Visibility","ImNetworkID":4,"ElevationMSL":null,"End Date":"2013-08-29T06:00:00.000Z","EPA Code":"040190005","Site Code":"ORPI1","Site ID":123,"Start Date":"2002-12-01T07:00:00.000Z","State":"AZ","State FIPS":"04","Active":1},"type":"Feature"},{"geometry":{"coordinates":[-112.9628,34.4289],"type":"Point"},"properties":{"Site Name":"Hillside","Parameter":"Visibility","ImNetworkID":4,"ElevationMSL":null,"End Date":"2005-05-31T06:00:00.000Z","EPA Code":"040250005","Site Code":"HILL1","Site ID":124,"Start Date":"2001-04-19T06:00:00.000Z","State":"AZ","State FIPS":"04","Active":0},"type":"Feature"},{"geometry":{"coordinates":[-114.0684,36.0193],"type":"Point"},"properties":{"Site Name":"Meadview","Parameter":"Visibility","ImNetworkID":27,"ElevationMSL":null,"End Date":"2013-08-29T06:00:00.000Z","EPA Code":"040159000","Site Code":"MEAD1","Site ID":125,"Start Date":"1991-09-04T06:00:00.000Z","State":"AZ","State FIPS":"04","Active":1},"type":"Feature"},{"geometry":{"coordinates":[-68.0333,46.6964],"type":"Point"},"properties":{"Site Name":"Presque Isle","Parameter":"Visibility","ImNetworkID":14,"ElevationMSL":null,"End Date":"2013-08-29T06:00:00.000Z","EPA Code":"230031020","Site Code":"PRIS1","Site ID":126,"Start Date":"2001-03-08T07:00:00.000Z","State":"ME","State FIPS":"23","Active":1},"type":"Feature"},{"geometry":{"coordinates":[-68.6457,44.9334],"type":"Point"},"properties":{"Site Name":"Old Town","Parameter":"Visibility","ImNetworkID":14,"ElevationMSL":null,"End Date":"2006-05-29T06:00:00.000Z","EPA Code":"230194003","Site Code":"OLTO1","Site ID":127,"Start Date":"2001-06-27T06:00:00.000Z","State":"ME","State FIPS":"23","Active":0},"type":"Feature"},{"geometry":{"coordinates":[-72.8688,44.5284],"type":"Point"},"properties":{"Site Name":"Proctor Maple R. F.","Parameter":"Visibility","ImNetworkID":14,"ElevationMSL":null,"End Date":"2013-08-29T06:00:00.000Z","EPA Code":"500070007","Site Code":"PMRF1","Site ID":128,"Start Date":"1993-12-01T07:00:00.000Z","State":"VT","State FIPS":"50","Active":1},"type":"Feature"},{"geometry":{"coordinates":[-70.0644,43.8325],"type":"Point"},"properties":{"Site Name":"Casco Bay","Parameter":"Visibility","ImNetworkID":14,"ElevationMSL":null,"End Date":"2013-08-29T06:00:00.000Z","EPA Code":"230059002","Site Code":"CABA1","Site ID":129,"Start Date":"2001-03-14T07:00:00.000Z","State":"ME","State FIPS":"23","Active":1},"type":"Feature"},{"geometry":{"coordinates":[-70.7292,44.1074],"type":"Point"},"properties":{"Site Name":"Bridgton","Parameter":"Visibility","ImNetworkID":14,"ElevationMSL":null,"End Date":"2013-08-29T06:00:00.000Z","EPA Code":"230050103","Site Code":"BRMA1","Site ID":130,"Start Date":"2001-03-14T07:00:00.000Z","State":"ME","State FIPS":"23","Active":1},"type":"Feature"},{"geometry":{"coordinates":[-70.0242,41.9758],"type":"Point"},"properties":{"Site Name":"Cape Cod","Parameter":"Visibility","ImNetworkID":2,"ElevationMSL":null,"End Date":"2013-08-29T06:00:00.000Z","EPA Code":"250010002","Site Code":"CACO1","Site ID":131,"Start Date":"2001-04-04T06:00:00.000Z","State":"MA","State FIPS":"25","Active":1},"type":"Feature"},{"geometry":{"coordinates":[-72.3346,42.2985],"type":"Point"},"properties":{"Site Name":"Quabbin Summit","Parameter":"Visibility","ImNetworkID":14,"ElevationMSL":null,"End Date":"2013-08-29T06:00:00.000Z","EPA Code":"250154002","Site Code":"QURE1","Site ID":132,"Start Date":"2001-04-04T06:00:00.000Z","State":"MA","State FIPS":"25","Active":1},"type":"Feature"},{"geometry":{"coordinates":[-70.7846,41.3309],"type":"Point"},"properties":{"Site Name":"Martha's Vineyard","Parameter":"Visibility","ImNetworkID":2,"ElevationMSL":null,"End Date":"2013-08-29T06:00:00.000Z","EPA Code":"250070001","Site Code":"MAVI1","Site ID":133,"Start Date":"2002-12-01T07:00:00.000Z","State":"MA","State FIPS":"25","Active":1},"type":"Feature"},{"geometry":{"coordinates":[-73.2973,41.8214],"type":"Point"},"properties":{"Site Name":"Mohawk Mt.","Parameter":"Visibility","ImNetworkID":14,"ElevationMSL":null,"End Date":"2013-08-29T06:00:00.000Z","EPA Code":"090050005","Site Code":"MOMO1","Site ID":134,"Start Date":"2001-09-13T06:00:00.000Z","State":"CT","State FIPS":"09","Active":1},"type":"Feature"},{"geometry":{"coordinates":[-117.8609,47.9045],"type":"Point"},"properties":{"Site Name":"Spokane Res.","Parameter":"Visibility","ImNetworkID":25,"ElevationMSL":null,"End Date":"2005-06-30T06:00:00.000Z","EPA Code":"530630051","Site Code":"SPOK1","Site ID":135,"Start Date":"2001-07-12T06:00:00.000Z","State":"WA","State FIPS":"53","Active":0},"type":"Feature"},{"geometry":{"coordinates":[-76.6534,42.4009],"type":"Point"},"properties":{"Site Name":"Connecticut Hill","Parameter":"Visibility","ImNetworkID":21,"ElevationMSL":null,"End Date":"2006-06-25T06:00:00.000Z","EPA Code":"361099000","Site Code":"COHI1","Site ID":136,"Start Date":"2001-04-04T06:00:00.000Z","State":"NY","State FIPS":"36","Active":0},"type":"Feature"},{"geometry":{"coordinates":[-80.1453,41.4269],"type":"Point"},"properties":{"Site Name":"M.K. Goddard","Parameter":"Visibility","ImNetworkID":21,"ElevationMSL":null,"End Date":"2010-12-31T07:00:00.000Z","EPA Code":"420859000","Site Code":"MKGO1","Site ID":137,"Start Date":"2001-04-04T06:00:00.000Z","State":"PA","State FIPS":"42","Active":0},"type":"Feature"},{"geometry":{"coordinates":[-77.3079,39.9232],"type":"Point"},"properties":{"Site Name":"Arendtsville","Parameter":"Visibility","ImNetworkID":30,"ElevationMSL":null,"End Date":"2010-12-31T07:00:00.000Z","EPA Code":"420019000","Site Code":"AREN1","Site ID":138,"Start Date":"2001-04-04T06:00:00.000Z","State":"PA","State FIPS":"42","Active":0},"type":"Feature"},{"geometry":{"coordinates":[-81.3378,39.9428],"type":"Point"},"properties":{"Site Name":"Quaker City","Parameter":"Visibility","ImNetworkID":3,"ElevationMSL":null,"End Date":"2013-08-29T06:00:00.000Z","EPA Code":"391219000","Site Code":"QUCI1","Site ID":139,"Start Date":"2001-04-04T06:00:00.000Z","State":"OH","State FIPS":"39","Active":1},"type":"Feature"},{"geometry":{"coordinates":[-88.3733,40.052],"type":"Point"},"properties":{"Site Name":"Bondville","Parameter":"Visibility","ImNetworkID":3,"ElevationMSL":null,"End Date":"2013-08-29T06:00:00.000Z","EPA Code":"170191001","Site Code":"BOND1","Site ID":140,"Start Date":"2001-03-08T07:00:00.000Z","State":"IL","State FIPS":"17","Active":1},"type":"Feature"},{"geometry":{"coordinates":[-86.2604,38.5346],"type":"Point"},"properties":{"Site Name":"Livonia","Parameter":"Visibility","ImNetworkID":3,"ElevationMSL":null,"End Date":"2010-12-31T07:00:00.000Z","EPA Code":"181759000","Site Code":"LIVO1","Site ID":141,"Start Date":"2001-03-08T07:00:00.000Z","State":"IN","State FIPS":"18","Active":0},"type":"Feature"},{"geometry":{"coordinates":[-87.8501,36.7842],"type":"Point"},"properties":{"Site Name":"Cadiz","Parameter":"Visibility","ImNetworkID":5,"ElevationMSL":null,"End Date":"2010-12-31T07:00:00.000Z","EPA Code":"212219000","Site Code":"CADI1","Site ID":142,"Start Date":"2001-03-08T07:00:00.000Z","State":"KY","State FIPS":"21","Active":0},"type":"Feature"},{"geometry":{"coordinates":[-92.435,32.0574],"type":"Point"},"properties":{"Site Name":"Sikes","Parameter":"Visibility","ImNetworkID":18,"ElevationMSL":null,"End Date":"2010-12-31T07:00:00.000Z","EPA Code":"221279000","Site Code":"SIKE1","Site ID":143,"Start Date":"2001-03-02T07:00:00.000Z","State":"LA","State FIPS":"22","Active":0},"type":"Feature"},{"geometry":{"coordinates":[-77.2099,42.0912],"type":"Point"},"properties":{"Site Name":"Addison Pinnacle","Parameter":"Visibility","ImNetworkID":21,"ElevationMSL":null,"End Date":"2010-06-28T06:00:00.000Z","EPA Code":"361019000","Site Code":"ADPI1","Site ID":144,"Start Date":"2001-04-04T06:00:00.000Z","State":"NY","State FIPS":"36","Active":0},"type":"Feature"},{"geometry":{"coordinates":[-122.2103,45.5693],"type":"Point"},"properties":{"Site Name":"Columbia Gorge #1","Parameter":"Visibility","ImNetworkID":1,"ElevationMSL":null,"End Date":"2011-10-30T06:00:00.000Z","EPA Code":"530390010","Site Code":"COGO1","Site ID":145,"Start Date":"1996-09-18T06:00:00.000Z","State":"WA","State FIPS":"53","Active":0},"type":"Feature"},{"geometry":{"coordinates":[-91.4052,43.9373],"type":"Point"},"properties":{"Site Name":"Great River Bluffs","Parameter":"Visibility","ImNetworkID":17,"ElevationMSL":null,"End Date":"2013-08-29T06:00:00.000Z","EPA Code":"271699000","Site Code":"GRRI1","Site ID":146,"Start Date":"2002-06-01T06:00:00.000Z","State":"MN","State FIPS":"27","Active":1},"type":"Feature"},{"geometry":{"coordinates":[-96.1913,43.7158],"type":"Point"},"properties":{"Site Name":"Blue Mounds","Parameter":"Visibility","ImNetworkID":3,"ElevationMSL":null,"End Date":"2013-08-29T06:00:00.000Z","EPA Code":"271339000","Site Code":"BLMO1","Site ID":147,"Start Date":"2002-06-01T06:00:00.000Z","State":"MN","State FIPS":"27","Active":1},"type":"Feature"},{"geometry":{"coordinates":[-91.9883,40.6883],"type":"Point"},"properties":{"Site Name":"Lake Sugema","Parameter":"Visibility","ImNetworkID":3,"ElevationMSL":null,"End Date":"2004-11-29T07:00:00.000Z","EPA Code":"191770006","Site Code":"LASU1","Site ID":148,"Start Date":"2002-05-08T06:00:00.000Z","State":"IA","State FIPS":"19","Active":0},"type":"Feature"},{"geometry":{"coordinates":[-95.045,40.969],"type":"Point"},"properties":{"Site Name":"Viking Lake","Parameter":"Visibility","ImNetworkID":3,"ElevationMSL":null,"End Date":"2013-08-29T06:00:00.000Z","EPA Code":"191370002","Site Code":"VILA1","Site ID":149,"Start Date":"2002-05-08T06:00:00.000Z","State":"IA","State FIPS":"19","Active":1},"type":"Feature"},{"geometry":{"coordinates":[-100.3387,41.8888],"type":"Point"},"properties":{"Site Name":"Nebraska NF","Parameter":"Visibility","ImNetworkID":32,"ElevationMSL":null,"End Date":"2013-08-29T06:00:00.000Z","EPA Code":"311719000","Site Code":"NEBR1","Site ID":151,"Start Date":"2002-06-01T06:00:00.000Z","State":"NE","State FIPS":"31","Active":1},"type":"Feature"},{"geometry":{"coordinates":[-102.4336,41.7627],"type":"Point"},"properties":{"Site Name":"Crescent Lake","Parameter":"Visibility","ImNetworkID":32,"ElevationMSL":null,"End Date":"2013-08-29T06:00:00.000Z","EPA Code":"310699000","Site Code":"CRES1","Site ID":153,"Start Date":"2002-06-01T06:00:00.000Z","State":"NE","State FIPS":"31","Active":1},"type":"Feature"},{"geometry":{"coordinates":[-95.5682,39.9791],"type":"Point"},"properties":{"Site Name":"Sac and Fox","Parameter":"Visibility","ImNetworkID":3,"ElevationMSL":null,"End Date":"2011-06-29T06:00:00.000Z","EPA Code":"200139000","Site Code":"SAFO1","Site ID":154,"Start Date":"2002-06-01T06:00:00.000Z","State":"KS","State FIPS":"20","Active":0},"type":"Feature"},{"geometry":{"coordinates":[-96.5602,38.4341],"type":"Point"},"properties":{"Site Name":"Tallgrass","Parameter":"Visibility","ImNetworkID":3,"ElevationMSL":null,"End Date":"2013-08-29T06:00:00.000Z","EPA Code":"200170001","Site Code":"TALL1","Site ID":155,"Start Date":"2002-09-02T06:00:00.000Z","State":"KS","State FIPS":"20","Active":1},"type":"Feature"},{"geometry":{"coordinates":[-99.7634,38.7701],"type":"Point"},"properties":{"Site Name":"Cedar Bluff","Parameter":"Visibility","ImNetworkID":26,"ElevationMSL":null,"End Date":"2013-08-29T06:00:00.000Z","EPA Code":"201950001","Site Code":"CEBL1","Site ID":156,"Start Date":"2002-06-01T06:00:00.000Z","State":"KS","State FIPS":"20","Active":1},"type":"Feature"},{"geometry":{"coordinates":[-94.0348,37.7009],"type":"Point"},"properties":{"Site Name":"El Dorado Springs","Parameter":"Visibility","ImNetworkID":3,"ElevationMSL":null,"End Date":"2013-08-29T06:00:00.000Z","EPA Code":"290390001","Site Code":"ELDO1","Site ID":157,"Start Date":"2002-03-03T07:00:00.000Z","State":"MO","State FIPS":"29","Active":1},"type":"Feature"},{"geometry":{"coordinates":[-97.0313,36.9562],"type":"Point"},"properties":{"Site Name":"Cherokee Nation","Parameter":"Visibility","ImNetworkID":26,"ElevationMSL":null,"End Date":"2010-04-20T06:00:00.000Z","EPA Code":"400719010","Site Code":"CHER1","Site ID":158,"Start Date":"2002-09-02T06:00:00.000Z","State":"OK","State FIPS":"40","Active":0},"type":"Feature"},{"geometry":{"coordinates":[-99.9354,36.0853],"type":"Point"},"properties":{"Site Name":"Ellis","Parameter":"Visibility","ImNetworkID":26,"ElevationMSL":null,"End Date":"2013-08-29T06:00:00.000Z","EPA Code":"400450890","Site Code":"ELLI1","Site ID":159,"Start Date":"2002-03-03T07:00:00.000Z","State":"OK","State FIPS":"40","Active":1},"type":"Feature"},{"geometry":{"coordinates":[-105.1022,48.308],"type":"Point"},"properties":{"Site Name":"Fort Peck","Parameter":"Visibility","ImNetworkID":32,"ElevationMSL":null,"End Date":"2013-08-29T06:00:00.000Z","EPA Code":"300859000","Site Code":"FOPE1","Site ID":160,"Start Date":"2002-06-01T06:00:00.000Z","State":"MT","State FIPS":"30","Active":1},"type":"Feature"},{"geometry":{"coordinates":[-106.5574,45.6495],"type":"Point"},"properties":{"Site Name":"Northern Cheyenne","Parameter":"Visibility","ImNetworkID":19,"ElevationMSL":null,"End Date":"2013-08-29T06:00:00.000Z","EPA Code":"300870762","Site Code":"NOCH1","Site ID":161,"Start Date":"2002-06-01T06:00:00.000Z","State":"MT","State FIPS":"30","Active":1},"type":"Feature"},{"geometry":{"coordinates":[-114.269,47.7734],"type":"Point"},"properties":{"Site Name":"Flathead","Parameter":"Visibility","ImNetworkID":19,"ElevationMSL":null,"End Date":"2013-08-29T06:00:00.000Z","EPA Code":"300479000","Site Code":"FLAT1","Site ID":162,"Start Date":"2002-06-01T06:00:00.000Z","State":"MT","State FIPS":"30","Active":1},"type":"Feature"},{"geometry":{"coordinates":[-106.9565,44.3335],"type":"Point"},"properties":{"Site Name":"Cloud Peak","Parameter":"Visibility","ImNetworkID":19,"ElevationMSL":null,"End Date":"2013-08-29T06:00:00.000Z","EPA Code":"560199000","Site Code":"CLPE1","Site ID":163,"Start Date":"2002-06-01T06:00:00.000Z","State":"WY","State FIPS":"56","Active":1},"type":"Feature"},{"geometry":{"coordinates":[-105.2874,44.6634],"type":"Point"},"properties":{"Site Name":"Thunder Basin","Parameter":"Visibility","ImNetworkID":32,"ElevationMSL":null,"End Date":"2013-08-29T06:00:00.000Z","EPA Code":"560050123","Site Code":"THBA1","Site ID":164,"Start Date":"2002-06-01T06:00:00.000Z","State":"WY","State FIPS":"56","Active":1},"type":"Feature"},{"geometry":{"coordinates":[-122.3119,47.5696],"type":"Point"},"properties":{"Site Name":"Puget Sound","Parameter":"Visibility","ImNetworkID":1,"ElevationMSL":null,"End Date":"2013-08-29T06:00:00.000Z","EPA Code":"530330080","Site Code":"PUSO1","Site ID":165,"Start Date":"1996-03-02T07:00:00.000Z","State":"WA","State FIPS":"53","Active":1},"type":"Feature"},{"geometry":{"coordinates":[-112.0958,33.5038],"type":"Point"},"properties":{"Site Name":"Phoenix","Parameter":"Visibility","ImNetworkID":4,"ElevationMSL":null,"End Date":"2013-08-29T06:00:00.000Z","EPA Code":"040139997","Site Code":"PHOE1","Site ID":166,"Start Date":"2001-04-19T06:00:00.000Z","State":"AZ","State FIPS":"04","Active":1},"type":"Feature"},{"geometry":{"coordinates":[-109.5833,38.7833],"type":"Point"},"properties":{"Site Name":"Arches NP","Parameter":"Visibility","ImNetworkID":8,"ElevationMSL":null,"End Date":"1999-12-29T07:00:00.000Z","EPA Code":"490190101","Site Code":"ARCH1","Site ID":167,"Start Date":"1988-03-02T07:00:00.000Z","State":"UT","State FIPS":"49","Active":0},"type":"Feature"},{"geometry":{"coordinates":[-112.1539,36.0658],"type":"Point"},"properties":{"Site Name":"Hopi Point #1","Parameter":"Visibility","ImNetworkID":15,"ElevationMSL":null,"End Date":"1999-12-29T07:00:00.000Z","EPA Code":"040052002","Site Code":"GRCA1","Site ID":171,"Start Date":"1988-03-02T07:00:00.000Z","State":"AZ","State FIPS":"04","Active":0},"type":"Feature"},{"geometry":{"coordinates":[-89.15,47.9167],"type":"Point"},"properties":{"Site Name":"Isle Royale NP","Parameter":"Visibility","ImNetworkID":17,"ElevationMSL":null,"End Date":"1999-12-29T07:00:00.000Z","EPA Code":"260839001","Site Code":"ISRO1","Site ID":173,"Start Date":"1988-06-01T06:00:00.000Z","State":"MI","State FIPS":"26","Active":0},"type":"Feature"},{"geometry":{"coordinates":[-79.4833,37.6167],"type":"Point"},"properties":{"Site Name":"Jefferson NF","Parameter":"Visibility","ImNetworkID":11,"ElevationMSL":null,"End Date":"2000-02-26T07:00:00.000Z","EPA Code":"511639001","Site Code":"JEFF1","Site ID":174,"Start Date":"1994-09-03T06:00:00.000Z","State":"VA","State FIPS":"51","Active":0},"type":"Feature"},{"geometry":{"coordinates":[-116.3889,34.0695],"type":"Point"},"properties":{"Site Name":"Joshua Tree NP","Parameter":"Visibility","ImNetworkID":27,"ElevationMSL":null,"End Date":"1999-12-29T07:00:00.000Z","EPA Code":"060719002","Site Code":"JOTR1","Site ID":175,"Start Date":"1991-09-04T06:00:00.000Z","State":"CA","State FIPS":"06","Active":0},"type":"Feature"},{"geometry":{"coordinates":[-122.5586,48.9533],"type":"Point"},"properties":{"Site Name":"Lynden","Parameter":"Visibility","ImNetworkID":1,"ElevationMSL":null,"End Date":"1999-12-29T07:00:00.000Z","EPA Code":"530730020","Site Code":"LYND1","Site ID":176,"Start Date":"1996-10-16T06:00:00.000Z","State":"WA","State FIPS":"53","Active":0},"type":"Feature"},{"geometry":{"coordinates":[-155.5767,19.5362],"type":"Point"},"properties":{"Site Name":"Mauna Loa Observatory #1","Parameter":"Visibility","ImNetworkID":16,"ElevationMSL":null,"End Date":"2004-08-28T06:00:00.000Z","EPA Code":"150019000","Site Code":"MALO1","Site ID":178,"Start Date":"1992-12-02T07:00:00.000Z","State":"HI","State FIPS":"15","Active":0},"type":"Feature"},{"geometry":{"coordinates":[-155.5767,19.5362],"type":"Point"},"properties":{"Site Name":"Mauna Loa Observatory #2","Parameter":"Visibility","ImNetworkID":16,"ElevationMSL":null,"End Date":"2004-08-28T06:00:00.000Z","EPA Code":"150019001","Site Code":"MALO2","Site ID":179,"Start Date":"1992-12-02T07:00:00.000Z","State":"HI","State FIPS":"15","Active":0},"type":"Feature"},{"geometry":{"coordinates":[-155.578,19.5389],"type":"Point"},"properties":{"Site Name":"Mauna Loa Observatory #3","Parameter":"Visibility","ImNetworkID":16,"ElevationMSL":null,"End Date":"2000-02-26T07:00:00.000Z","EPA Code":"150019003","Site Code":"MALO3","Site ID":180,"Start Date":"1996-03-06T07:00:00.000Z","State":"HI","State FIPS":"15","Active":0},"type":"Feature"},{"geometry":{"coordinates":[-155.578,19.5389],"type":"Point"},"properties":{"Site Name":"Mauna Loa Observatory #4","Parameter":"Visibility","ImNetworkID":16,"ElevationMSL":null,"End Date":"2000-02-26T07:00:00.000Z","EPA Code":"150019004","Site Code":"MALO4","Site ID":181,"Start Date":"1996-03-02T07:00:00.000Z","State":"HI","State FIPS":"15","Active":0},"type":"Feature"},{"geometry":{"coordinates":[-105.5638,40.3624],"type":"Point"},"properties":{"Site Name":"Rocky Mountain NP HQ","Parameter":"Visibility","ImNetworkID":19,"ElevationMSL":null,"End Date":"1999-12-29T07:00:00.000Z","EPA Code":"080699000","Site Code":"RMHQ1","Site ID":182,"Start Date":"1988-03-02T07:00:00.000Z","State":"CO","State FIPS":"08","Active":0},"type":"Feature"},{"geometry":{"coordinates":[-106.4844,32.6869],"type":"Point"},"properties":{"Site Name":"San Andres","Parameter":"Visibility","ImNetworkID":31,"ElevationMSL":null,"End Date":"2000-02-26T07:00:00.000Z","EPA Code":"350139000","Site Code":"SAAN1","Site ID":184,"Start Date":"1997-07-30T06:00:00.000Z","State":"NM","State FIPS":"35","Active":0},"type":"Feature"},{"geometry":{"coordinates":[-113.0333,43.65],"type":"Point"},"properties":{"Site Name":"Scoville","Parameter":"Visibility","ImNetworkID":25,"ElevationMSL":null,"End Date":"2000-02-26T07:00:00.000Z","EPA Code":"160230003","Site Code":"SCOV1","Site ID":185,"Start Date":"1992-03-04T07:00:00.000Z","State":"ID","State FIPS":"16","Active":0},"type":"Feature"},{"geometry":{"coordinates":[-119.9667,38.9333],"type":"Point"},"properties":{"Site Name":"South Lake Tahoe","Parameter":"Visibility","ImNetworkID":20,"ElevationMSL":null,"End Date":"1999-12-29T07:00:00.000Z","EPA Code":"060170008","Site Code":"SOLA1","Site ID":186,"Start Date":"1989-03-01T07:00:00.000Z","State":"CA","State FIPS":"06","Active":0},"type":"Feature"},{"geometry":{"coordinates":[-106.74,40.445],"type":"Point"},"properties":{"Site Name":"Storm Peak","Parameter":"Visibility","ImNetworkID":19,"ElevationMSL":null,"End Date":"1999-12-29T07:00:00.000Z","EPA Code":"081079000","Site Code":"STPE1","Site ID":187,"Start Date":"1993-12-01T07:00:00.000Z","State":"CO","State FIPS":"08","Active":0},"type":"Feature"},{"geometry":{"coordinates":[-92.8286,48.4126],"type":"Point"},"properties":{"Site Name":"Voyageurs NP #2","Parameter":"Visibility","ImNetworkID":17,"ElevationMSL":null,"End Date":"2013-08-29T06:00:00.000Z","EPA Code":"271379000","Site Code":"VOYA2","Site ID":188,"Start Date":"1988-03-02T07:00:00.000Z","State":"MN","State FIPS":"27","Active":1},"type":"Feature"},{"geometry":{"coordinates":[-110.4002,44.5653],"type":"Point"},"properties":{"Site Name":"Yellowstone NP 2","Parameter":"Visibility","ImNetworkID":10,"ElevationMSL":null,"End Date":"2013-08-29T06:00:00.000Z","EPA Code":"560399000","Site Code":"YELL2","Site ID":189,"Start Date":"1988-03-02T07:00:00.000Z","State":"WY","State FIPS":"56","Active":1},"type":"Feature"},{"geometry":{"coordinates":[-72.0111,41.8408],"type":"Point"},"properties":{"Site Name":"Abington","Parameter":"Ozone","ImNetworkID":14,"ElevationMSL":null,"End Date":"2011-02-26T07:00:00.000Z","EPA Code":"090159991","Site Code":"ABT147","Site ID":207,"Start Date":"1994-01-01T07:00:00.000Z","State":"CT","State FIPS":"09","Active":0},"type":"Feature"},{"geometry":{"coordinates":[-68.261,44.377],"type":"Point"},"properties":{"Site Name":"Acadia NP","Parameter":"Ozone","ImNetworkID":14,"ElevationMSL":null,"End Date":"2011-02-26T07:00:00.000Z","EPA Code":"230090103","Site Code":"ACA416","Site ID":208,"Start Date":"1998-02-01T07:00:00.000Z","State":"ME","State FIPS":"23","Active":0},"type":"Feature"},{"geometry":{"coordinates":[-89.6219,38.8689],"type":"Point"},"properties":{"Site Name":"Alhambra","Parameter":"Ozone","ImNetworkID":3,"ElevationMSL":null,"End Date":"2011-02-26T07:00:00.000Z","EPA Code":"171199991","Site Code":"ALH157","Site ID":209,"Start Date":"1988-07-01T06:00:00.000Z","State":"IL","State FIPS":"17","Active":0},"type":"Feature"},{"geometry":{"coordinates":[-89.6219,38.8689],"type":"Point"},"properties":{"Site Name":"Alhambra Collocated","Parameter":"Ozone","ImNetworkID":3,"ElevationMSL":null,"End Date":"1990-09-30T06:00:00.000Z","EPA Code":"","Site Code":"ALH257","Site ID":210,"Start Date":"1989-04-01T07:00:00.000Z","State":"IL","State FIPS":"17","Active":0},"type":"Feature"},{"geometry":{"coordinates":[-83.9019,42.4164],"type":"Point"},"properties":{"Site Name":"Ann Arbor","Parameter":"Ozone","ImNetworkID":17,"ElevationMSL":null,"End Date":"2011-02-26T07:00:00.000Z","EPA Code":"261619991","Site Code":"ANA115","Site ID":212,"Start Date":"1988-07-01T06:00:00.000Z","State":"MI","State FIPS":"26","Active":0},"type":"Feature"},{"geometry":{"coordinates":[-87.99,41.7],"type":"Point"},"properties":{"Site Name":"Argonne NL","Parameter":"Ozone","ImNetworkID":17,"ElevationMSL":null,"End Date":"1993-03-31T07:00:00.000Z","EPA Code":"","Site Code":"ANL146","Site ID":213,"Start Date":"1987-07-01T06:00:00.000Z","State":"IL","State FIPS":"17","Active":0},"type":"Feature"},{"geometry":{"coordinates":[-77.3078,39.9231],"type":"Point"},"properties":{"Site Name":"Arendtsville","Parameter":"Ozone","ImNetworkID":30,"ElevationMSL":null,"End Date":"2011-02-26T07:00:00.000Z","EPA Code":"420019991","Site Code":"ARE128","Site ID":214,"Start Date":"1988-07-01T06:00:00.000Z","State":"PA","State FIPS":"42","Active":0},"type":"Feature"},{"geometry":{"coordinates":[-77.3078,39.9231],"type":"Point"},"properties":{"Site Name":"Arendtsville Collocated","Parameter":"Ozone","ImNetworkID":30,"ElevationMSL":null,"End Date":"1995-05-31T06:00:00.000Z","EPA Code":"","Site Code":"ARE228","Site ID":215,"Start Date":"1990-10-01T06:00:00.000Z","State":"PA","State FIPS":"42","Active":0},"type":"Feature"},{"geometry":{"coordinates":[-68.4142,46.6039],"type":"Point"},"properties":{"Site Name":"Ashland","Parameter":"Ozone","ImNetworkID":14,"ElevationMSL":null,"End Date":"2011-02-26T07:00:00.000Z","EPA Code":"230039991","Site Code":"ASH135","Site ID":217,"Start Date":"1989-01-01T07:00:00.000Z","State":"ME","State FIPS":"23","Active":0},"type":"Feature"},{"geometry":{"coordinates":[-68.4142,46.6039],"type":"Point"},"properties":{"Site Name":"Ashland Collocated","Parameter":"Ozone","ImNetworkID":14,"ElevationMSL":null,"End Date":"2001-09-30T06:00:00.000Z","EPA Code":"","Site Code":"ASH235","Site ID":218,"Start Date":"1995-09-01T06:00:00.000Z","State":"ME","State FIPS":"23","Active":0},"type":"Feature"},{"geometry":{"coordinates":[-103.177,29.31],"type":"Point"},"properties":{"Site Name":"Big Bend NP","Parameter":"Ozone","ImNetworkID":31,"ElevationMSL":null,"End Date":"2011-02-26T07:00:00.000Z","EPA Code":"480430101","Site Code":"BBE401","Site ID":219,"Start Date":"1995-07-01T06:00:00.000Z","State":"TX","State FIPS":"48","Active":0},"type":"Feature"},{"geometry":{"coordinates":[-76.8175,39.0283],"type":"Point"},"properties":{"Site Name":"Beltsville","Parameter":"Ozone","ImNetworkID":7,"ElevationMSL":null,"End Date":"2011-02-26T07:00:00.000Z","EPA Code":"240339991","Site Code":"BEL116","Site ID":220,"Start Date":"1989-01-01T07:00:00.000Z","State":"MD","State FIPS":"24","Active":0},"type":"Feature"},{"geometry":{"coordinates":[-76.6213,34.8843],"type":"Point"},"properties":{"Site Name":"Beaufort","Parameter":"Ozone","ImNetworkID":24,"ElevationMSL":null,"End Date":"2011-02-26T07:00:00.000Z","EPA Code":"370319991","Site Code":"BFT142","Site ID":221,"Start Date":"1994-01-01T07:00:00.000Z","State":"NC","State FIPS":"37","Active":0},"type":"Feature"},{"geometry":{"coordinates":[-88.3719,40.0514],"type":"Point"},"properties":{"Site Name":"Bondville","Parameter":"Ozone","ImNetworkID":3,"ElevationMSL":null,"End Date":"2011-02-26T07:00:00.000Z","EPA Code":"170199991","Site Code":"BVL130","Site ID":222,"Start Date":"1988-04-01T07:00:00.000Z","State":"IL","State FIPS":"17","Active":0},"type":"Feature"},{"geometry":{"coordinates":[-76.1115,38.4448],"type":"Point"},"properties":{"Site Name":"Blackwater NWR","Parameter":"Ozone","ImNetworkID":2,"ElevationMSL":null,"End Date":"2011-02-26T07:00:00.000Z","EPA Code":"240199991","Site Code":"BWR139","Site ID":224,"Start Date":"1995-07-01T06:00:00.000Z","State":"MD","State FIPS":"24","Active":0},"type":"Feature"},{"geometry":{"coordinates":[-93.0989,34.1792],"type":"Point"},"properties":{"Site Name":"Caddo Valley","Parameter":"Ozone","ImNetworkID":3,"ElevationMSL":null,"End Date":"2011-02-26T07:00:00.000Z","EPA Code":"050199991","Site Code":"CAD150","Site ID":225,"Start Date":"1988-10-01T06:00:00.000Z","State":"AR","State FIPS":"05","Active":0},"type":"Feature"},{"geometry":{"coordinates":[-109.821,38.458],"type":"Point"},"properties":{"Site Name":"Canyonlands NP","Parameter":"Ozone","ImNetworkID":8,"ElevationMSL":null,"End Date":"2011-02-26T07:00:00.000Z","EPA Code":"490370101","Site Code":"CAN407","Site ID":226,"Start Date":"1995-01-01T07:00:00.000Z","State":"UT","State FIPS":"49","Active":0},"type":"Feature"},{"geometry":{"coordinates":[-74.5514,41.9411],"type":"Point"},"properties":{"Site Name":"Claryville","Parameter":"Ozone","ImNetworkID":14,"ElevationMSL":null,"End Date":"2011-02-26T07:00:00.000Z","EPA Code":"","Site Code":"CAT175","Site ID":227,"Start Date":"1994-05-01T06:00:00.000Z","State":"NY","State FIPS":"36","Active":0},"type":"Feature"},{"geometry":{"coordinates":[-80.8479,38.8794],"type":"Point"},"properties":{"Site Name":"Cedar Creek","Parameter":"Ozone","ImNetworkID":21,"ElevationMSL":null,"End Date":"2011-02-26T07:00:00.000Z","EPA Code":"540219991","Site Code":"CDR119","Site ID":228,"Start Date":"1988-01-01T07:00:00.000Z","State":"WV","State FIPS":"54","Active":0},"type":"Feature"},{"geometry":{"coordinates":[-87.8504,36.7854],"type":"Point"},"properties":{"Site Name":"Cadiz","Parameter":"Ozone","ImNetworkID":5,"ElevationMSL":null,"End Date":"2011-02-26T07:00:00.000Z","EPA Code":"212219991","Site Code":"CDZ171","Site ID":229,"Start Date":"1993-10-01T06:00:00.000Z","State":"KY","State FIPS":"21","Active":0},"type":"Feature"},{"geometry":{"coordinates":[-109.389,32.0097],"type":"Point"},"properties":{"Site Name":"Chiricahua NM Collocated","Parameter":"Ozone","ImNetworkID":4,"ElevationMSL":null,"End Date":"1992-09-30T06:00:00.000Z","EPA Code":"","Site Code":"CHA267","Site ID":231,"Start Date":"1989-07-01T06:00:00.000Z","State":"AZ","State FIPS":"04","Active":0},"type":"Feature"},{"geometry":{"coordinates":[-109.389,32.0097],"type":"Point"},"properties":{"Site Name":"Chiricahua NM (NPS)","Parameter":"Ozone","ImNetworkID":4,"ElevationMSL":null,"End Date":"2011-02-26T07:00:00.000Z","EPA Code":"040038001","Site Code":"CHA467","Site ID":232,"Start Date":"1989-07-01T06:00:00.000Z","State":"AZ","State FIPS":"04","Active":0},"type":"Feature"},{"geometry":{"coordinates":[-83.0658,37.9211],"type":"Point"},"properties":{"Site Name":"Crockett","Parameter":"Ozone","ImNetworkID":5,"ElevationMSL":null,"End Date":"2011-02-26T07:00:00.000Z","EPA Code":"211759991","Site Code":"CKT136","Site ID":233,"Start Date":"1993-08-24T06:00:00.000Z","State":"KY","State FIPS":"21","Active":0},"type":"Feature"},{"geometry":{"coordinates":[-79.837,35.2637],"type":"Point"},"properties":{"Site Name":"Candor","Parameter":"Ozone","ImNetworkID":24,"ElevationMSL":null,"End Date":"2011-02-26T07:00:00.000Z","EPA Code":"371239991","Site Code":"CND125","Site ID":234,"Start Date":"1990-10-01T06:00:00.000Z","State":"NC","State FIPS":"37","Active":0},"type":"Feature"},{"geometry":{"coordinates":[-106.242,41.3722],"type":"Point"},"properties":{"Site Name":"Centennial","Parameter":"Ozone","ImNetworkID":19,"ElevationMSL":null,"End Date":"2011-02-26T07:00:00.000Z","EPA Code":"560019991","Site Code":"CNT169","Site ID":236,"Start Date":"1989-07-01T06:00:00.000Z","State":"WY","State FIPS":"56","Active":0},"type":"Feature"},{"geometry":{"coordinates":[-83.4302,35.0605],"type":"Point"},"properties":{"Site Name":"Coweeta 137","Parameter":"Ozone","ImNetworkID":11,"ElevationMSL":null,"End Date":"2011-02-26T07:00:00.000Z","EPA Code":"371139991","Site Code":"COW137","Site ID":237,"Start Date":"1988-01-01T07:00:00.000Z","State":"NC","State FIPS":"37","Active":0},"type":"Feature"},{"geometry":{"coordinates":[-76.6536,42.4011],"type":"Point"},"properties":{"Site Name":"Connecticut Hill","Parameter":"Ozone","ImNetworkID":21,"ElevationMSL":null,"End Date":"2011-02-26T07:00:00.000Z","EPA Code":"361099991","Site Code":"CTH110","Site ID":239,"Start Date":"1987-10-01T06:00:00.000Z","State":"NY","State FIPS":"36","Active":0},"type":"Feature"},{"geometry":{"coordinates":[-89.7989,34.0028],"type":"Point"},"properties":{"Site Name":"Coffeeville","Parameter":"Ozone","ImNetworkID":18,"ElevationMSL":null,"End Date":"2011-02-26T07:00:00.000Z","EPA Code":"281619991","Site Code":"CVL151","Site ID":241,"Start Date":"1989-01-01T07:00:00.000Z","State":"MS","State FIPS":"28","Active":0},"type":"Feature"},{"geometry":{"coordinates":[-83.258,39.6358],"type":"Point"},"properties":{"Site Name":"Deer Creek","Parameter":"Ozone","ImNetworkID":3,"ElevationMSL":null,"End Date":"2011-02-26T07:00:00.000Z","EPA Code":"390479991","Site Code":"DCP114","Site ID":242,"Start Date":"1988-10-01T06:00:00.000Z","State":"OH","State FIPS":"39","Active":0},"type":"Feature"},{"geometry":{"coordinates":[-83.258,39.6358],"type":"Point"},"properties":{"Site Name":"Deer Creek Collocated","Parameter":"Ozone","ImNetworkID":3,"ElevationMSL":null,"End Date":"1992-09-30T06:00:00.000Z","EPA Code":"","Site Code":"DCP214","Site ID":243,"Start Date":"1990-10-01T06:00:00.000Z","State":"OH","State FIPS":"39","Active":0},"type":"Feature"},{"geometry":{"coordinates":[-148.968,63.723],"type":"Point"},"properties":{"Site Name":"Denali NP","Parameter":"Ozone","ImNetworkID":6,"ElevationMSL":null,"End Date":"2011-02-26T07:00:00.000Z","EPA Code":"020680003","Site Code":"DEN417","Site ID":244,"Start Date":"1998-01-01T07:00:00.000Z","State":"AK","State FIPS":"02","Active":0},"type":"Feature"},{"geometry":{"coordinates":[-116.838,36.508],"type":"Point"},"properties":{"Site Name":"Death Valley NM","Parameter":"Ozone","ImNetworkID":27,"ElevationMSL":null,"End Date":"2008-05-11T06:00:00.000Z","EPA Code":"","Site Code":"DEV412","Site ID":245,"Start Date":"1995-01-01T07:00:00.000Z","State":"CA","State FIPS":"06","Active":0},"type":"Feature"},{"geometry":{"coordinates":[-85.734,36.0393],"type":"Point"},"properties":{"Site Name":"Edgar Evins","Parameter":"Ozone","ImNetworkID":5,"ElevationMSL":null,"End Date":"2011-02-26T07:00:00.000Z","EPA Code":"470419991","Site Code":"ESP127","Site ID":247,"Start Date":"1988-07-01T06:00:00.000Z","State":"TN","State FIPS":"47","Active":0},"type":"Feature"},{"geometry":{"coordinates":[-80.683,25.388],"type":"Point"},"properties":{"Site Name":"Everglades NP","Parameter":"Ozone","ImNetworkID":28,"ElevationMSL":null,"End Date":"2011-02-26T07:00:00.000Z","EPA Code":"","Site Code":"EVE419","Site ID":248,"Start Date":"1998-01-01T07:00:00.000Z","State":"FL","State FIPS":"12","Active":0},"type":"Feature"},{"geometry":{"coordinates":[-84.4053,33.1792],"type":"Point"},"properties":{"Site Name":"Georgia Station","Parameter":"Ozone","ImNetworkID":24,"ElevationMSL":null,"End Date":"2011-02-26T07:00:00.000Z","EPA Code":"132319991","Site Code":"GAS153","Site ID":249,"Start Date":"1988-07-01T06:00:00.000Z","State":"GA","State FIPS":"13","Active":0},"type":"Feature"},{"geometry":{"coordinates":[-84.4053,33.1792],"type":"Point"},"properties":{"Site Name":"Georgia Station Collocated","Parameter":"Ozone","ImNetworkID":24,"ElevationMSL":null,"End Date":"1990-09-30T06:00:00.000Z","EPA Code":"","Site Code":"GAS253","Site ID":250,"Start Date":"1989-04-01T07:00:00.000Z","State":"GA","State FIPS":"13","Active":0},"type":"Feature"},{"geometry":{"coordinates":[-113.995,48.51],"type":"Point"},"properties":{"Site Name":"Glacier NP NPS","Parameter":"Ozone","ImNetworkID":19,"ElevationMSL":null,"End Date":"2011-02-26T07:00:00.000Z","EPA Code":"300298001","Site Code":"GLR468","Site ID":252,"Start Date":"1989-04-01T07:00:00.000Z","State":"MT","State FIPS":"30","Active":0},"type":"Feature"},{"geometry":{"coordinates":[-114.215,39.005],"type":"Point"},"properties":{"Site Name":"Great Basin NP","Parameter":"Ozone","ImNetworkID":27,"ElevationMSL":null,"End Date":"2011-02-26T07:00:00.000Z","EPA Code":"320330101","Site Code":"GRB411","Site ID":254,"Start Date":"1995-04-01T07:00:00.000Z","State":"NV","State FIPS":"32","Active":0},"type":"Feature"},{"geometry":{"coordinates":[-112.182,36.059],"type":"Point"},"properties":{"Site Name":"Grand Canyon NP (NPS)","Parameter":"Ozone","ImNetworkID":15,"ElevationMSL":null,"End Date":"2011-02-26T07:00:00.000Z","EPA Code":"040058001","Site Code":"GRC474","Site ID":255,"Start Date":"1989-07-01T06:00:00.000Z","State":"AZ","State FIPS":"04","Active":0},"type":"Feature"},{"geometry":{"coordinates":[-83.942,35.631],"type":"Point"},"properties":{"Site Name":"Great Smoky NP - Look Rock","Parameter":"Ozone","ImNetworkID":11,"ElevationMSL":null,"End Date":"2011-02-26T07:00:00.000Z","EPA Code":"470090101","Site Code":"GRS420","Site ID":256,"Start Date":"1998-01-01T07:00:00.000Z","State":"TN","State FIPS":"47","Active":0},"type":"Feature"},{"geometry":{"coordinates":[-106.985,38.9573],"type":"Point"},"properties":{"Site Name":"Gothic","Parameter":"Ozone","ImNetworkID":8,"ElevationMSL":null,"End Date":"2011-02-26T07:00:00.000Z","EPA Code":"080519991","Site Code":"GTH161","Site ID":257,"Start Date":"1989-07-01T06:00:00.000Z","State":"CO","State FIPS":"08","Active":0},"type":"Feature"},{"geometry":{"coordinates":[-68.7092,45.2161],"type":"Point"},"properties":{"Site Name":"Howland","Parameter":"Ozone","ImNetworkID":14,"ElevationMSL":null,"End Date":"2011-02-26T07:00:00.000Z","EPA Code":"230199991","Site Code":"HOW132","Site ID":259,"Start Date":"1993-01-01T07:00:00.000Z","State":"ME","State FIPS":"23","Active":0},"type":"Feature"},{"geometry":{"coordinates":[-155.3,19.4472],"type":"Point"},"properties":{"Site Name":"Hawaii Volcanoes NP","Parameter":"Ozone","ImNetworkID":16,"ElevationMSL":null,"End Date":"2004-06-30T06:00:00.000Z","EPA Code":"","Site Code":"HVT424","Site ID":261,"Start Date":"1999-09-01T06:00:00.000Z","State":"HI","State FIPS":"15","Active":0},"type":"Feature"},{"geometry":{"coordinates":[-116.39,34.071],"type":"Point"},"properties":{"Site Name":"Joshua Tree NM","Parameter":"Ozone","ImNetworkID":27,"ElevationMSL":null,"End Date":"2011-02-26T07:00:00.000Z","EPA Code":"060719002","Site Code":"JOT403","Site ID":262,"Start Date":"1995-02-01T07:00:00.000Z","State":"CA","State FIPS":"06","Active":0},"type":"Feature"},{"geometry":{"coordinates":[-78.7683,41.5981],"type":"Point"},"properties":{"Site Name":"Kane Exp. Forest","Parameter":"Ozone","ImNetworkID":21,"ElevationMSL":null,"End Date":"2011-02-26T07:00:00.000Z","EPA Code":"420479991","Site Code":"KEF112","Site ID":263,"Start Date":"1989-01-01T07:00:00.000Z","State":"PA","State FIPS":"42","Active":0},"type":"Feature"},{"geometry":{"coordinates":[-121.572,40.536],"type":"Point"},"properties":{"Site Name":"Lassen Volcanic NP","Parameter":"Ozone","ImNetworkID":23,"ElevationMSL":null,"End Date":"2011-02-26T07:00:00.000Z","EPA Code":"060893003","Site Code":"LAV410","Site ID":264,"Start Date":"1995-07-01T06:00:00.000Z","State":"CA","State FIPS":"06","Active":0},"type":"Feature"},{"geometry":{"coordinates":[-82.99,37.13],"type":"Point"},"properties":{"Site Name":"Lilley C. Woods","Parameter":"Ozone","ImNetworkID":5,"ElevationMSL":null,"End Date":"1993-12-31T07:00:00.000Z","EPA Code":"","Site Code":"LCW121","Site ID":265,"Start Date":"1988-04-01T07:00:00.000Z","State":"KY","State FIPS":"21","Active":0},"type":"Feature"},{"geometry":{"coordinates":[-79.2522,39.9883],"type":"Point"},"properties":{"Site Name":"Laurel Hill","Parameter":"Ozone","ImNetworkID":21,"ElevationMSL":null,"End Date":"2011-02-26T07:00:00.000Z","EPA Code":"421119991","Site Code":"LRL117","Site ID":268,"Start Date":"1988-01-01T07:00:00.000Z","State":"PA","State FIPS":"42","Active":0},"type":"Feature"},{"geometry":{"coordinates":[-73.0634,43.0504],"type":"Point"},"properties":{"Site Name":"Lye Brook","Parameter":"Ozone","ImNetworkID":14,"ElevationMSL":null,"End Date":"2007-07-15T06:00:00.000Z","EPA Code":"","Site Code":"LYE145","Site ID":269,"Start Date":"1994-01-01T07:00:00.000Z","State":"VT","State FIPS":"50","Active":0},"type":"Feature"},{"geometry":{"coordinates":[-82.9981,40.9169],"type":"Point"},"properties":{"Site Name":"Lykens","Parameter":"Ozone","ImNetworkID":3,"ElevationMSL":null,"End Date":"2010-10-13T06:00:00.000Z","EPA Code":"","Site Code":"LYK123","Site ID":270,"Start Date":"1988-12-01T07:00:00.000Z","State":"OH","State FIPS":"39","Active":0},"type":"Feature"},{"geometry":{"coordinates":[-85.0483,37.7044],"type":"Point"},"properties":{"Site Name":"Mackville","Parameter":"Ozone","ImNetworkID":5,"ElevationMSL":null,"End Date":"2011-02-26T07:00:00.000Z","EPA Code":"212299991","Site Code":"MCK131","Site ID":271,"Start Date":"1990-08-01T06:00:00.000Z","State":"KY","State FIPS":"21","Active":0},"type":"Feature"},{"geometry":{"coordinates":[-85.0483,37.7044],"type":"Point"},"properties":{"Site Name":"Mackville Collocated","Parameter":"Ozone","ImNetworkID":5,"ElevationMSL":null,"End Date":"2011-02-26T07:00:00.000Z","EPA Code":"212299991","Site Code":"MCK231","Site ID":272,"Start Date":"1993-01-01T07:00:00.000Z","State":"KY","State FIPS":"21","Active":0},"type":"Feature"},{"geometry":{"coordinates":[-108.49,37.198],"type":"Point"},"properties":{"Site Name":"Mesa Verde NP","Parameter":"Ozone","ImNetworkID":15,"ElevationMSL":null,"End Date":"2011-02-26T07:00:00.000Z","EPA Code":"080830101","Site Code":"MEV405","Site ID":273,"Start Date":"1995-01-01T07:00:00.000Z","State":"CO","State FIPS":"08","Active":0},"type":"Feature"},{"geometry":{"coordinates":[-80.1447,41.425],"type":"Point"},"properties":{"Site Name":"M.K. Goddard","Parameter":"Ozone","ImNetworkID":21,"ElevationMSL":null,"End Date":"2011-02-26T07:00:00.000Z","EPA Code":"420859991","Site Code":"MKG113","Site ID":274,"Start Date":"1988-04-01T07:00:00.000Z","State":"PA","State FIPS":"42","Active":0},"type":"Feature"},{"geometry":{"coordinates":[-122.121,46.761],"type":"Point"},"properties":{"Site Name":"Mount Rainier NP","Parameter":"Ozone","ImNetworkID":1,"ElevationMSL":null,"End Date":"2011-02-26T07:00:00.000Z","EPA Code":"530531010","Site Code":"MOR409","Site ID":276,"Start Date":"1995-08-01T06:00:00.000Z","State":"WA","State FIPS":"53","Active":0},"type":"Feature"},{"geometry":{"coordinates":[-121.446,48.539],"type":"Point"},"properties":{"Site Name":"North Cascades NP","Parameter":"Ozone","ImNetworkID":1,"ElevationMSL":null,"End Date":"2008-05-11T06:00:00.000Z","EPA Code":"","Site Code":"NCS415","Site ID":277,"Start Date":"1996-02-01T07:00:00.000Z","State":"WA","State FIPS":"53","Active":0},"type":"Feature"},{"geometry":{"coordinates":[-123.426,48.098],"type":"Point"},"properties":{"Site Name":"Olympic NP","Parameter":"Ozone","ImNetworkID":1,"ElevationMSL":null,"End Date":"2005-02-28T07:00:00.000Z","EPA Code":"","Site Code":"OLY421","Site ID":278,"Start Date":"1998-11-01T07:00:00.000Z","State":"WA","State FIPS":"53","Active":0},"type":"Feature"},{"geometry":{"coordinates":[-84.29,35.96],"type":"Point"},"properties":{"Site Name":"Oak Ridge","Parameter":"Ozone","ImNetworkID":11,"ElevationMSL":null,"End Date":"1988-12-31T07:00:00.000Z","EPA Code":"","Site Code":"ONL102","Site ID":279,"Start Date":"1987-01-01T07:00:00.000Z","State":"TN","State FIPS":"47","Active":0},"type":"Feature"},{"geometry":{"coordinates":[-84.7231,39.5314],"type":"Point"},"properties":{"Site Name":"Oxford","Parameter":"Ozone","ImNetworkID":3,"ElevationMSL":null,"End Date":"2011-02-26T07:00:00.000Z","EPA Code":"390179991","Site Code":"OXF122","Site ID":280,"Start Date":"1987-10-01T06:00:00.000Z","State":"OH","State FIPS":"39","Active":0},"type":"Feature"},{"geometry":{"coordinates":[-79.6614,39.0906],"type":"Point"},"properties":{"Site Name":"Parsons","Parameter":"Ozone","ImNetworkID":21,"ElevationMSL":null,"End Date":"2011-02-26T07:00:00.000Z","EPA Code":"540939991","Site Code":"PAR107","Site ID":281,"Start Date":"1988-04-01T07:00:00.000Z","State":"WV","State FIPS":"54","Active":0},"type":"Feature"},{"geometry":{"coordinates":[-79.6614,39.0906],"type":"Point"},"properties":{"Site Name":"Parsons Collocated","Parameter":"Ozone","ImNetworkID":21,"ElevationMSL":null,"End Date":"1990-09-30T06:00:00.000Z","EPA Code":"","Site Code":"PAR207","Site ID":282,"Start Date":"1989-04-01T07:00:00.000Z","State":"WV","State FIPS":"54","Active":0},"type":"Feature"},{"geometry":{"coordinates":[-84.97,37.68],"type":"Point"},"properties":{"Site Name":"Perryville","Parameter":"Ozone","ImNetworkID":5,"ElevationMSL":null,"End Date":"1990-06-30T06:00:00.000Z","EPA Code":"","Site Code":"PBF129","Site ID":283,"Start Date":"1987-10-01T06:00:00.000Z","State":"KY","State FIPS":"21","Active":0},"type":"Feature"},{"geometry":{"coordinates":[-78.3068,37.1658],"type":"Point"},"properties":{"Site Name":"Prince Edward","Parameter":"Ozone","ImNetworkID":30,"ElevationMSL":null,"End Date":"2011-02-26T07:00:00.000Z","EPA Code":"511479991","Site Code":"PED108","Site ID":284,"Start Date":"1988-01-01T07:00:00.000Z","State":"VA","State FIPS":"51","Active":0},"type":"Feature"},{"geometry":{"coordinates":[-121.155,36.485],"type":"Point"},"properties":{"Site Name":"Pinnacles NM","Parameter":"Ozone","ImNetworkID":9,"ElevationMSL":null,"End Date":"2011-02-26T07:00:00.000Z","EPA Code":"060690003","Site Code":"PIN414","Site ID":285,"Start Date":"1995-05-01T06:00:00.000Z","State":"CA","State FIPS":"06","Active":0},"type":"Feature"},{"geometry":{"coordinates":[-109.787,42.9214],"type":"Point"},"properties":{"Site Name":"Pinedale","Parameter":"Ozone","ImNetworkID":10,"ElevationMSL":null,"End Date":"2011-02-26T07:00:00.000Z","EPA Code":"560359991","Site Code":"PND165","Site ID":286,"Start Date":"1989-01-01T07:00:00.000Z","State":"WY","State FIPS":"56","Active":0},"type":"Feature"},{"geometry":{"coordinates":[-82.0448,36.104],"type":"Point"},"properties":{"Site Name":"Cranberry","Parameter":"Ozone","ImNetworkID":11,"ElevationMSL":null,"End Date":"2011-02-26T07:00:00.000Z","EPA Code":"370119991","Site Code":"PNF126","Site ID":287,"Start Date":"1989-01-01T07:00:00.000Z","State":"NC","State FIPS":"37","Active":0},"type":"Feature"},{"geometry":{"coordinates":[-90.5978,45.2064],"type":"Point"},"properties":{"Site Name":"Perkinstown","Parameter":"Ozone","ImNetworkID":17,"ElevationMSL":null,"End Date":"2011-02-26T07:00:00.000Z","EPA Code":"551199991","Site Code":"PRK134","Site ID":288,"Start Date":"1988-10-01T06:00:00.000Z","State":"WI","State FIPS":"55","Active":0},"type":"Feature"},{"geometry":{"coordinates":[-77.9319,40.7208],"type":"Point"},"properties":{"Site Name":"Penn State","Parameter":"Ozone","ImNetworkID":21,"ElevationMSL":null,"End Date":"2011-02-26T07:00:00.000Z","EPA Code":"420279991","Site Code":"PSU106","Site ID":289,"Start Date":"1987-01-01T07:00:00.000Z","State":"PA","State FIPS":"42","Active":0},"type":"Feature"},{"geometry":{"coordinates":[-81.3378,39.9431],"type":"Point"},"properties":{"Site Name":"Quaker City","Parameter":"Ozone","ImNetworkID":3,"ElevationMSL":null,"End Date":"2011-02-26T07:00:00.000Z","EPA Code":"391219991","Site Code":"QAK172","Site ID":290,"Start Date":"1993-10-01T06:00:00.000Z","State":"OH","State FIPS":"39","Active":0},"type":"Feature"},{"geometry":{"coordinates":[-116.75,43.21],"type":"Point"},"properties":{"Site Name":"Reynolds Creek","Parameter":"Ozone","ImNetworkID":25,"ElevationMSL":null,"End Date":"1993-09-30T06:00:00.000Z","EPA Code":"","Site Code":"RCK163","Site ID":293,"Start Date":"1989-07-01T06:00:00.000Z","State":"ID","State FIPS":"16","Active":0},"type":"Feature"},{"geometry":{"coordinates":[-116.75,43.21],"type":"Point"},"properties":{"Site Name":"Reynolds Creek Collocated","Parameter":"Ozone","ImNetworkID":25,"ElevationMSL":null,"End Date":"1992-12-31T07:00:00.000Z","EPA Code":"","Site Code":"RCK263","Site ID":294,"Start Date":"1990-10-01T06:00:00.000Z","State":"ID","State FIPS":"16","Active":0},"type":"Feature"},{"geometry":{"coordinates":[-105.545,40.277],"type":"Point"},"properties":{"Site Name":"Rocky Mtn NP","Parameter":"Ozone","ImNetworkID":19,"ElevationMSL":null,"End Date":"2011-02-26T07:00:00.000Z","EPA Code":"080690007","Site Code":"ROM406","Site ID":295,"Start Date":"1994-10-01T06:00:00.000Z","State":"CO","State FIPS":"08","Active":0},"type":"Feature"},{"geometry":{"coordinates":[-78.88,35.91],"type":"Point"},"properties":{"Site Name":"Res. Triangle Pk.","Parameter":"Ozone","ImNetworkID":24,"ElevationMSL":null,"End Date":"2006-11-28T07:00:00.000Z","EPA Code":"","Site Code":"RTP101","Site ID":296,"Start Date":"1987-01-01T07:00:00.000Z","State":"NC","State FIPS":"37","Active":0},"type":"Feature"},{"geometry":{"coordinates":[-85.6608,40.8164],"type":"Point"},"properties":{"Site Name":"Salamonie Reservoir","Parameter":"Ozone","ImNetworkID":3,"ElevationMSL":null,"End Date":"2011-02-26T07:00:00.000Z","EPA Code":"181699991","Site Code":"SAL133","Site ID":297,"Start Date":"1988-10-01T06:00:00.000Z","State":"IN","State FIPS":"18","Active":0},"type":"Feature"},{"geometry":{"coordinates":[-115.86,41.29],"type":"Point"},"properties":{"Site Name":"Saval Ranch","Parameter":"Ozone","ImNetworkID":25,"ElevationMSL":null,"End Date":"1993-09-30T06:00:00.000Z","EPA Code":"","Site Code":"SAV164","Site ID":298,"Start Date":"1989-07-01T06:00:00.000Z","State":"NV","State FIPS":"32","Active":0},"type":"Feature"},{"geometry":{"coordinates":[-118.762,36.429],"type":"Point"},"properties":{"Site Name":"Sequoia NP - Lookout Pt","Parameter":"Ozone","ImNetworkID":20,"ElevationMSL":null,"End Date":"2004-12-31T07:00:00.000Z","EPA Code":"","Site Code":"SEK402","Site ID":300,"Start Date":"1997-02-01T07:00:00.000Z","State":"CA","State FIPS":"06","Active":0},"type":"Feature"},{"geometry":{"coordinates":[-78.4364,38.5234],"type":"Point"},"properties":{"Site Name":"Shenandoah NP - Big Meadows NPS","Parameter":"Ozone","ImNetworkID":30,"ElevationMSL":null,"End Date":"2011-02-26T07:00:00.000Z","EPA Code":"511130003","Site Code":"SHN418","Site ID":302,"Start Date":"1988-07-01T06:00:00.000Z","State":"VA","State FIPS":"51","Active":0},"type":"Feature"},{"geometry":{"coordinates":[-85.9704,34.2894],"type":"Point"},"properties":{"Site Name":"Sand Mountain","Parameter":"Ozone","ImNetworkID":5,"ElevationMSL":null,"End Date":"2011-02-26T07:00:00.000Z","EPA Code":"010499991","Site Code":"SND152","Site ID":307,"Start Date":"1989-01-01T07:00:00.000Z","State":"AL","State FIPS":"01","Active":0},"type":"Feature"},{"geometry":{"coordinates":[-83.8272,36.4692],"type":"Point"},"properties":{"Site Name":"Speedwell","Parameter":"Ozone","ImNetworkID":5,"ElevationMSL":null,"End Date":"2011-02-26T07:00:00.000Z","EPA Code":"470259991","Site Code":"SPD111","Site ID":308,"Start Date":"1989-07-01T06:00:00.000Z","State":"TN","State FIPS":"47","Active":0},"type":"Feature"},{"geometry":{"coordinates":[-90,42.2869],"type":"Point"},"properties":{"Site Name":"Stockton","Parameter":"Ozone","ImNetworkID":3,"ElevationMSL":null,"End Date":"2011-02-26T07:00:00.000Z","EPA Code":"170859991","Site Code":"STK138","Site ID":309,"Start Date":"1994-01-01T07:00:00.000Z","State":"IL","State FIPS":"17","Active":0},"type":"Feature"},{"geometry":{"coordinates":[-84.9938,30.1065],"type":"Point"},"properties":{"Site Name":"Sumatra","Parameter":"Ozone","ImNetworkID":18,"ElevationMSL":null,"End Date":"2011-02-26T07:00:00.000Z","EPA Code":"120779991","Site Code":"SUM156","Site ID":310,"Start Date":"1989-01-01T07:00:00.000Z","State":"FL","State FIPS":"12","Active":0},"type":"Feature"},{"geometry":{"coordinates":[-84.9938,30.1065],"type":"Point"},"properties":{"Site Name":"Sumatra Collocated","Parameter":"Ozone","ImNetworkID":18,"ElevationMSL":null,"End Date":"1993-03-31T07:00:00.000Z","EPA Code":"","Site Code":"SUM256","Site ID":311,"Start Date":"1990-10-01T06:00:00.000Z","State":"FL","State FIPS":"12","Active":0},"type":"Feature"},{"geometry":{"coordinates":[-103.378,46.895],"type":"Point"},"properties":{"Site Name":"Theodore Roosevelt NP","Parameter":"Ozone","ImNetworkID":32,"ElevationMSL":null,"End Date":"2011-02-26T07:00:00.000Z","EPA Code":"380070002","Site Code":"THR422","Site ID":312,"Start Date":"1998-08-01T06:00:00.000Z","State":"ND","State FIPS":"38","Active":0},"type":"Feature"},{"geometry":{"coordinates":[-110.32,40.55],"type":"Point"},"properties":{"Site Name":"Uinta","Parameter":"Ozone","ImNetworkID":8,"ElevationMSL":null,"End Date":"1993-09-30T06:00:00.000Z","EPA Code":"","Site Code":"UIN162","Site ID":313,"Start Date":"1989-07-01T06:00:00.000Z","State":"UT","State FIPS":"49","Active":0},"type":"Feature"},{"geometry":{"coordinates":[-83.3597,43.6139],"type":"Point"},"properties":{"Site Name":"Unionville","Parameter":"Ozone","ImNetworkID":17,"ElevationMSL":null,"End Date":"2011-02-26T07:00:00.000Z","EPA Code":"261579991","Site Code":"UVL124","Site ID":314,"Start Date":"1988-07-01T06:00:00.000Z","State":"MI","State FIPS":"26","Active":0},"type":"Feature"},{"geometry":{"coordinates":[-64.796,18.336],"type":"Point"},"properties":{"Site Name":"Virgin Islands NP - Lind Pt","Parameter":"Ozone","ImNetworkID":28,"ElevationMSL":null,"End Date":"2004-01-31T07:00:00.000Z","EPA Code":"","Site Code":"VII423","Site ID":315,"Start Date":"1998-04-01T07:00:00.000Z","State":"VI","State FIPS":"78","Active":0},"type":"Feature"},{"geometry":{"coordinates":[-87.4844,38.7406],"type":"Point"},"properties":{"Site Name":"Vincennes","Parameter":"Ozone","ImNetworkID":3,"ElevationMSL":null,"End Date":"2011-02-26T07:00:00.000Z","EPA Code":"180839991","Site Code":"VIN140","Site ID":316,"Start Date":"1987-10-01T06:00:00.000Z","State":"IN","State FIPS":"18","Active":0},"type":"Feature"},{"geometry":{"coordinates":[-92.829,48.412],"type":"Point"},"properties":{"Site Name":"Voyageurs NP","Parameter":"Ozone","ImNetworkID":17,"ElevationMSL":null,"End Date":"2011-02-26T07:00:00.000Z","EPA Code":"271370034","Site Code":"VOY413","Site ID":317,"Start Date":"1996-06-01T06:00:00.000Z","State":"MN","State FIPS":"27","Active":0},"type":"Feature"},{"geometry":{"coordinates":[-80.5573,37.33],"type":"Point"},"properties":{"Site Name":"Horton Station","Parameter":"Ozone","ImNetworkID":11,"ElevationMSL":null,"End Date":"2011-02-26T07:00:00.000Z","EPA Code":"510719991","Site Code":"VPI120","Site ID":318,"Start Date":"1987-07-01T06:00:00.000Z","State":"VA","State FIPS":"51","Active":0},"type":"Feature"},{"geometry":{"coordinates":[-85.8186,44.2236],"type":"Point"},"properties":{"Site Name":"Wellston","Parameter":"Ozone","ImNetworkID":17,"ElevationMSL":null,"End Date":"2000-09-30T06:00:00.000Z","EPA Code":"","Site Code":"WEL149","Site ID":319,"Start Date":"1988-07-01T06:00:00.000Z","State":"MI","State FIPS":"26","Active":0},"type":"Feature"},{"geometry":{"coordinates":[-73.86,44.39],"type":"Point"},"properties":{"Site Name":"Whiteface Mtn.","Parameter":"Ozone","ImNetworkID":14,"ElevationMSL":null,"End Date":"1993-03-31T07:00:00.000Z","EPA Code":"","Site Code":"WFM105","Site ID":320,"Start Date":"1987-01-01T07:00:00.000Z","State":"NY","State FIPS":"36","Active":0},"type":"Feature"},{"geometry":{"coordinates":[-74.05,41.35],"type":"Point"},"properties":{"Site Name":"West Point A","Parameter":"Ozone","ImNetworkID":14,"ElevationMSL":null,"End Date":"1988-09-30T06:00:00.000Z","EPA Code":"","Site Code":"WPA103","Site ID":321,"Start Date":"1987-01-01T07:00:00.000Z","State":"NY","State FIPS":"36","Active":0},"type":"Feature"},{"geometry":{"coordinates":[-74.05,41.35],"type":"Point"},"properties":{"Site Name":"West Point B","Parameter":"Ozone","ImNetworkID":14,"ElevationMSL":null,"End Date":"1993-09-30T06:00:00.000Z","EPA Code":"","Site Code":"WPB104","Site ID":322,"Start Date":"1987-01-01T07:00:00.000Z","State":"NY","State FIPS":"36","Active":0},"type":"Feature"},{"geometry":{"coordinates":[-74.8728,40.3132],"type":"Point"},"properties":{"Site Name":"Wash. Crossing","Parameter":"Ozone","ImNetworkID":21,"ElevationMSL":null,"End Date":"2011-02-26T07:00:00.000Z","EPA Code":"340219991","Site Code":"WSP144","Site ID":323,"Start Date":"1989-01-01T07:00:00.000Z","State":"NJ","State FIPS":"34","Active":0},"type":"Feature"},{"geometry":{"coordinates":[-71.7017,43.9444],"type":"Point"},"properties":{"Site Name":"Woodstock","Parameter":"Ozone","ImNetworkID":14,"ElevationMSL":null,"End Date":"2011-02-26T07:00:00.000Z","EPA Code":"330099991","Site Code":"WST109","Site ID":324,"Start Date":"1989-01-01T07:00:00.000Z","State":"NH","State FIPS":"33","Active":0},"type":"Feature"},{"geometry":{"coordinates":[-110.4,44.565],"type":"Point"},"properties":{"Site Name":"Yellowstone NP (YEL408)","Parameter":"Ozone","ImNetworkID":10,"ElevationMSL":null,"End Date":"2011-02-26T07:00:00.000Z","EPA Code":"560391011","Site Code":"YEL408","Site ID":325,"Start Date":"1996-06-01T06:00:00.000Z","State":"WY","State FIPS":"56","Active":0},"type":"Feature"},{"geometry":{"coordinates":[-119.704,37.711],"type":"Point"},"properties":{"Site Name":"Yosemite NP - Turtleback Dome","Parameter":"Ozone","ImNetworkID":20,"ElevationMSL":null,"End Date":"2011-02-26T07:00:00.000Z","EPA Code":"060430003","Site Code":"YOS404","Site ID":326,"Start Date":"1995-10-01T06:00:00.000Z","State":"CA","State FIPS":"06","Active":0},"type":"Feature"},